objName,price,salePrice,style,parking,lon,lat,landArea,mainArea,affiliatedArea,zipCode
光南靜巷高樓美2房,3288,3288,大樓,無,121.558172861,25.03501145,6.69,21.48,2.2,110
I1金寧鄉置產土地4,950,950,土地,無,111.111111,22.222222,389.51,,,110
永春四季台北邊間美邸,6988,6988,華廈,私有,121.574130735,25.0413236262,9.08,23.3,10.31,110
國館精裝美三室,3873,3873,大樓,無,121.557702522,25.0358911752,2.48,20.71,4.67,110
Y39捷運*101景觀頂佳,1800,1800,公寓,無,121.570572823,25.0201851846,8.26,27.74,3.39,110
FZ9信義區｜北醫商圈三房,1980,1980,公寓,無,121.563586622,25.0231059021,8.44,26.39,2.93,110
大統領辦公坡道機械車位,160,160,大樓,私有,121.558525649,25.0309816709,0.09,5.32,,110
信義四四東村三房,4200,4200,大樓,可租,121.564038922,25.0260497133,9.76,23.09,3.1,110
國際名紳高樓4房坡車,7300,7300,大樓,私有,121.57497109,25.0377320211,5.51,44.66,7.39,110
信義挑高庭院一樓,2880,2880,大樓,無,121.571844925,25.0182580491,8.81,35.01,4.77,110
信義101帝景樓中樓,5988,5988,大樓,私有,121.571145409,25.0188295637,15.28,53.68,19.78,110
【六張犁｜信義區一樓・好停車】,2388,2388,公寓,無,121.556832777,25.0229404698,7.3,22.21,,110
&信義上林苑電梯豪墅,32680,32680,別墅,無,121.577528538,25.0200464394,209.94,241.65,30.67,110
松仁莊敬美居,2260,2260,公寓,無,121.567924793,25.0269119836,8.77,24.07,2.75,110
富比世稀有車位,158,158,大樓,私有,121.56953935,25.0243178637,0,0.08,0,110
089面公園近捷運方正美寓,2488,2488,公寓,無,121.572300793,25.0475163643,8.83,34.73,2.73,110
信義區稀有可建農舍農地/合法申,26566,26566,土地,無,121.566905823,25.011770133,1021.09,,,110
世貿101景觀質感商辦,16688,16688,大樓,私有,121.567053,25.033165,12.37,97.5,,110
太陽磁場4房坡車,5388,5388,大樓,私有,121.575367967,25.0353469683,8.57,43.12,4.94,110
❤市府捷運大雅寓,3488,3488,公寓,無,121.56915749,25.0430605834,11.93,38.06,4.01,110
南投縣-土地,2880,2880,土地,無,120.696791,23.908713,142.18,,,110
101無敵美景 信義路三房車,3850,3850,大樓,私有,121.573564151,25.0212694717,10.95,30.13,3.8,110
EZ9忠孝界｜複合式兩房,2980,2980,華廈,私有,121.582545573,25.0430422848,4.18,12.48,2.93,110
EZ9忠孝界｜4米獨享庭院,5580,5580,華廈,私有,121.582545573,25.0430422848,7.81,22.85,5.83,110
EZ9忠孝界｜挑高兩房車,2680,2680,大樓,私有,121.582461467,25.0430067846,3.63,10.37,2.9,110
H6127 太子東宮邊間2樓,3280,3280,大樓,無,121.577688285,25.0392055791,4,24.53,3.49,110
計畫區永富信義名邸II,14988,14988,華廈,私有,121.564105348,25.0317537928,25.4,51.29,6.54,110
麟光商圈捷運旁一樓大空間,2588,2588,公寓,無,121.558070545,25.0210093351,8.09,19.81,2.72,110
市府捷運一樓住辦,4280,4280,華廈,無,121.566830149,25.0436151272,6.07,26.55,3.67,110
EZ8-101景觀露臺戶三房,4298,4298,大樓,私有,121.565762811,25.0244116038,8.43,16.78,2.61,110
基泰國際面中庭靜幽美邸,5688,5688,大樓,私有,121.553639824,25.0249562688,4.01,22.88,6.04,110
世貿101景觀附坡車,7580,7580,華廈,私有,121.56508761,25.0287640129,8.73,59.76,6.92,110
市府挑高庭院1+1品味宅,2480,2480,華廈,無,121.569887017,25.046320984,3.93,7.17,2.1,110
信義捷運管理電梯三房,2880,2880,大樓,無,121.553031538,25.0244796602,7.43,24.48,3.29,110
財經世紀辦公大樓,4500,4500,大樓,私有,121.556008092,25.0272101187,7.4,31.76,5.82,110
FZ9北醫商圈｜三房美寓,2300,2300,公寓,私有,121.563586622,25.0231059021,8.45,26.39,2.93,110
六張犁低總次高樓電梯美屋,1750,1750,華廈,無,121.554392515,25.0240692179,3.29,12.34,0.7,110
$101永春捷運3房,3488,3488,華廈,無,121.575396459,25.0395361,7.27,27.81,1.96,110
101景觀鼎佳美寓,2780,2780,公寓,無,121.571474599,25.0234983401,9.24,28.47,3.3,110
富陽四季美寓,2500,2500,公寓,無,121.556298777,25.0220604043,10.97,25.07,3.58,110
富陽美妝公寓二樓,2500,2500,公寓,無,121.556298777,25.0220604043,10.97,25.07,3.58,110
富陽新裝潢邊間三房,2500,2500,公寓,無,121.556298777,25.0220604043,10.97,25.07,3.58,110
市府晶華美2房,2780,2780,華廈,無,121.5694059,25.0425737674,6.42,8.51,2.94,110
計畫區永富信義雙璽臻邸,29976,29976,華廈,私有,121.569646039,25.0311898373,51.11,102.59,13.07,110
計畫區永富信義名邸I,14988,14988,華廈,私有,121.56396341,25.0317566072,25.71,51.29,6.54,110
文普世紀天廈小型純辦,3199,3199,大樓,無,121.553262815,25.0247971532,2.55,23.39,0.7,110
K4收租王｜北醫合法隔套,3480,3480,公寓,無,121.563485783,25.0231385607,12.88,38.71,2.88,110
【麟光站｜近文湖線・三面採光】,3280,3280,公寓,無,121.560681588,25.0167201111,12.16,35.2,6.86,110
【北醫｜吳興街・庭院一樓】,2620,2620,華廈,無,121.564812888,25.0256577635,7.08,26.61,2.24,110
信義區SRC純辦獨戶雙坡車,13680,13680,大樓,私有,121.571017017,25.0454678038,12.03,96.22,68.48,110
AZ9新川普精緻美屋坡平車,2080,2080,大樓,私有,121.573524035,25.0338835806,2.44,7.97,1.6,110
台北京華商辦,9688,9688,大樓,私有,121.567237025,25.0465957916,17.05,50.04,,110
稀有信義國寶庭園樓中樓,19800,19800,華廈,私有,121.563895059,25.0303496306,32.88,69.18,12.72,110
瑞雲景觀美邸,2880,2880,公寓,無,121.57666506,25.0162627934,17.74,28.15,14.98,110
信義國中美寓鼎佳,2987,2987,公寓,無,121.567325844,25.02788802,10.28,27.03,3.88,110
&台北信義層峰豪邸,29950,29950,大樓,私有,121.570041126,25.0335549817,20.31,69.24,10.2,110
上林苑私家花園別墅,15000,15000,別墅,私有,121.577248992,25.018896656,126.44,79.22,42.19,110
上林苑景觀別墅,11000,11000,別墅,私有,121.577139745,25.0201817489,143.08,85.32,49,110
【市政府站｜忠孝東路・商三特】,3700,3700,公寓,無,121.569245204,25.0411881882,8.85,23.3,1.41,110
廣慈公寓都更進行中,2488,2488,公寓,無,121.583975715,25.0401886102,11.04,24.6,3.5,110
【永春站｜近計畫區・店面辦公】,8800,8800,華廈,無,121.57617012,25.0395883345,15.74,25.61,37.38,110
世貿台北101景觀住辦,5568,5568,大樓,私有,121.557839385,25.0327197349,7.32,28.98,3,110
&信義庭院大戶雙坡車,13888,13888,華廈,私有,121.564595305,25.0297731904,30.68,55.9,4.89,110
上林苑別墅,8500,8500,別墅,私有,121.576769921,25.018583523,90.75,55.52,33.11,110
&專任世貿101景觀美妝,4380,4380,華廈,無,121.557956115,25.0284641531,10.03,38.24,4.47,110
B7車位賣Yes世貿社區,228,228,其他,私有,121.560718823,25.0324030216,0,,,110
頭份國中正對面 中央段都市住宅地,5980,5980,土地,無,120.912708,24.686679,152.25,,,110
北醫電梯大戶平車,4200,4200,華廈,私有,121.563872246,25.0229257972,13.57,40.3,10.3,110
信義計畫馬可波羅花園五房,9680,9680,大樓,私有,121.57424722,25.0358454209,16.38,43.45,25.64,110
信義計畫區豪宅松雍13A,20420,20420,大樓,無,121.570074796,25.0337593658,18.14,53.66,11.66,110
信義計畫區豪宅松雍13B,21500,21500,大樓,無,121.570222317,25.0337642266,18.14,53.66,11.66,110
信義計畫區豪宅松雍4B,19988,19988,大樓,私有,121.570222317,25.0337642266,18.14,80.91,11.66,110
信義計畫區豪宅松雍4A,18888,18888,大樓,無,121.570074796,25.0337593658,18.14,53.66,11.66,110
富陽街公寓二樓,2200,2200,公寓,無,121.556168154,25.0234136833,8.95,25.3,4.05,110
青山綠境買地送屋,1980,1980,土地,無,121.57094,25.01651,88.63,36.42,,110
信義山林養生透天,1980,1980,透天,無,121.570919669,25.016409018,88.63,,,110
吳興街商圈四房美寓,2880,2880,公寓,無,121.571106688,25.0197324531,10.05,34.31,3.62,110
信義商三收租角地,15000,15000,土地,無,121.567053,25.033165,30.86,,,110
市府國品電梯三房,4228,4228,華廈,無,121.567965477,25.0448773516,8.31,28.88,5.24,110
FZ7國館優質3房頂家,3250,3250,公寓,無,121.558667474,25.0362216977,8.42,26.13,1.96,110
信義計畫太平洋凱旋,15888,15888,華廈,私有,121.564830107,25.0303537503,45.48,81.42,8.96,110
O15和平東路黎富公園一樓,2688,2688,公寓,無,121.558070545,25.0210093351,8.09,19.81,2.72,110
稀有信義區一樓前院車庫宅,3288,3288,公寓,無,121.556819913,25.0253024284,11.31,27.19,2.57,110
永春永吉靜巷美寓,2950,2950,公寓,無,121.573413023,25.0443065872,8.1,25.7,2.75,110
麟光捷運邊間壹樓,4680,4680,公寓,無,121.559536443,25.0197467469,11.31,35.43,19.28,110
101世貿兩室+車位,2838,2838,大樓,私有,121.558460837,25.0315052703,2.43,12.01,1.99,110
貴婦百貨景觀戶,6088,6088,大樓,私有,121.56741617,25.0412999216,3.51,16,4.86,110
【世貿新城．綠意盎然】,5988,5988,大樓,私有,121.566081467,25.0308502215,12.46,24.69,3.6,110
FZ6福德邊間採光三樓,1888,1888,公寓,無,121.586605201,25.0395611387,6.96,20.57,2.44,110
冠德領袖綠景雙車位,13100,13100,大樓,私有,121.573051312,25.0340217953,22.77,40,5.31,110
信義區一樓庭院大宅,4380,4380,公寓,無,121.575341349,25.0326408597,9.43,29.6,4.13,110
國際名紳2房2衛坡平車,5158,5158,大樓,私有,121.57497109,25.0377320211,3.96,30.27,3.27,110
東騰信義質感幽靜山居美邸,5360,5360,華廈,私有,121.570656474,25.0184055936,7.91,26.18,3.65,110
宜蘭市美農，大面大坪數,4060,4060,土地,無,121.771704,24.738408,1352.99,,,110
象山保護區土地,13240,13240,土地,無,121.5741,25.01575,3983.92,,,110
國館電梯永馨精品,3873,3873,大樓,無,121.557702522,25.035891138,2.48,20.71,4.67,110
信義區-富陽街建地,8325,8325,土地,無,121.556398,25.022273,52.03,,,110
信義區黃金建地,1280,1280,土地,無,121.577072,25.034935,9.98,,,110
EZ4捷運夏宮獨戶質感豪邸,13506,13506,大樓,私有,121.583570647,25.0377765281,16.26,44.51,10.71,110
EZ4丰藝捷運夏宮｜層峰豪邸,11706,11706,大樓,私有,121.583570647,25.0377765281,16.69,44.51,10.71,110
莊敬漂亮黃金三樓,2260,2260,公寓,無,121.567924793,25.0269119836,8.77,24.07,2.75,110
&EAT101景觀時尚2房,3298,3298,大樓,無,121.576504945,25.0410492204,3.14,11.25,0.51,110
高第101產權坡機車位,82,82,大樓,私有,121.569097207,25.0458446929,0.21,0.01,0,110
家美國際金融+坡平大車位,6848,6848,大樓,私有,121.578749633,25.0411149684,5.64,49.83,6.3,110
帝王露台鋼骨坡車,6650,6650,大樓,私有,121.574835894,25.0364877997,5.01,38.44,14.68,110
捷運市政府101高第景觀宅,4900,4900,大樓,私有,121.569052536,25.0458458393,4.22,25.74,3.2,110
市政府捷運站聯合世紀住辦大樓,4998,4998,大樓,無,121.565095051,25.0418057537,1.21,34.03,5.1,110
六張犁捷運鼎家,2058,2058,公寓,無,121.556266501,25.0224440082,8.62,30.9,0.76,110
柒樓靜域 I 信義核心辦公,4500,4500,大樓,私有,121.556008092,25.0272101187,7.4,31.8,5.8,110
北醫旁潛力邊間三房,1750,1750,公寓,無,121.563098651,25.0248962958,9,22.67,,110
信義北醫面公園景觀電梯宅,2680,2680,華廈,無,121.557132185,25.0259705013,6.14,26.83,1.45,110
信義區全新北歐風3房+陽台,2088,2088,公寓,無,121.576308082,25.0354160425,9.07,18.7,1.77,110
市政府捷運精緻二房,1698,1698,公寓,無,121.569236158,25.045078669,2.96,13.74,1.02,110
E13信義區捷運兩房步行市政府,1698,1698,公寓,無,121.569236158,25.045078669,2.96,14.76,0,110
五分埔7-11三角窗金店,14800,14800,公寓,無,121.577949806,25.0473877491,10.36,32.77,1.56,110
設計師的家（信義懷石）,4380,4380,華廈,私有,121.570851818,25.0465638292,9.38,27.97,4.05,110
E09吳興街公寓一樓,2100,2100,公寓,無,121.572651778,25.0173470808,8.7,36.1,2.25,110
松信路電梯三房,2380,2380,大樓,無,121.572252912,25.0461486087,4.04,27.78,1.99,110
北醫面公園3房,2050,2050,公寓,無,121.563969514,25.0247875523,10.68,26.9,4.24,110
3115松永雙潔大空間頂家,2580,2580,公寓,無,121.576933191,25.0425526,12.13,38.47,6.06,110
台北醫學院黃金店面,5300,5300,華廈,私有,121.564206953,25.026053264,15.99,67.24,3.2,110
北醫吳興商圈金店面,5300,5300,華廈,私有,121.564206953,25.026053264,15.99,33.12,3.2,110
信義全新北歐風美妝3房,2088,2088,公寓,無,121.576308082,25.0354160425,9.07,18.7,1.77,110
信義松隆精緻二房,1698,1698,公寓,無,121.569236158,25.045078669,2.96,13.74,1.02,110
五分埔三角窗噴錢金店,14800,14800,公寓,無,121.577949806,25.0473877491,10.36,34.33,0,110
林口街雙捷運金店面,4188,4188,公寓,無,121.580400227,25.0403014116,9.91,22.08,0,110
信義區虎林街黃金3樓美寓,2088,2088,公寓,無,121.576308082,25.0354160425,9.07,18.7,1.77,110
世貿莊敬低公設華廈邊間4房,4388,4388,華廈,無,121.563809206,25.0293878562,7.96,36.38,4.25,110
信義誠家１０１景觀露台三房,4298,4298,華廈,私有,121.565581991,25.0244541552,8.43,16.78,2.61,110
博愛近捷運靜巷參樓,2088,2088,公寓,無,121.576308082,25.0354160425,9.07,18.7,1.77,110
博愛興雅學區質感三房,2088,2088,公寓,無,121.576308082,25.0354160425,9.07,18.7,1.77,110
E61信義美妝3房,2088,2088,公寓,無,121.576308082,25.0354160425,9.07,18.7,1.77,110
捷運五分埔商二角間金店,14800,14800,公寓,無,121.577949806,25.0473877491,10.36,26.26,8.07,110
大巨蛋首璽。逸仙路榮耀三角窗,8800,8800,華廈,無,121.563097396,25.0402538479,28.62,75.36,0.96,110
五分埔三角窗店面,14800,14800,公寓,無,121.577949806,25.0473877491,10.36,34.33,,110
象山捷運美裝潢三樓美寓,2088,2088,公寓,無,121.576308082,25.0354160425,9.07,18.7,1.77,110
五分埔商二角店,14800,14800,公寓,無,121.577949806,25.0473877491,10.36,26.26,8.07,110
D05光復南路車位,160,160,其他,私有,121.557615294,25.0324159382,0.63,,0,110
D06光復南路車位,160,160,其他,私有,121.557615294,25.0324159382,0.63,,0,110
雙捷運博愛學區歐風裝潢黃金3樓,2088,2088,公寓,無,121.576308082,25.0354160425,9.07,18.7,1.77,110
IZ6新竹香山景觀農地,1470,1470,土地,無,120.922223,24.839409,741,,,110
IZ6香山大湖景觀農地,9344,9344,土地,無,120.922223,24.839409,5652,,,110
IZ6香山大湖休閒度假農地,12271,12271,土地,無,120.922223,24.839409,7423,,,110
I3大路旁都市計畫方正美農地,4508,4508,土地,無,120.93254,24.67891,375.7,,0,110
松隆路北城世貿純辦,8800,8800,大樓,私有,121.571025431,25.0458845305,7.62,57.84,18.76,110
市府透天收租店面,9688,9688,透天,無,121.568860151,25.0431949525,24.2,31.11,,110
$挹翠山莊景觀美宅,2980,2980,華廈,無,121.574367946,25.0192878854,11.15,35.83,4.98,110
近Y39站+101超值明亮屋,1750,1750,公寓,無,121.570347599,25.0189348199,8.57,25.54,4.86,110
北醫光靜寓所,1798,1798,公寓,無,121.561061324,25.0227191708,6.66,25.43,4,110
北醫面寬大器金店,5300,5300,華廈,私有,121.564206953,25.026053264,15.99,67.24,3.2,110
後山埤華廈一樓住辦附車位,4298,4298,華廈,私有,121.585755853,25.0414886783,9.74,43.16,4.86,110
皇家名宮都更洽談中,4700,4700,大樓,私有,121.557550519,25.0293644911,4.5,33.25,2.37,110
永春捷運信義區精裝美寓,2950,2950,公寓,無,121.573413023,25.0443065872,8.1,25.7,2.75,110
獨家~廣慈博愛公園一層一戶黃金三樓,2688,2688,公寓,無,121.582533761,25.0409201781,9.48,29.33,1.92,110
信義光復黃金路邊店面,6480,6480,大樓,無,121.558619351,25.0332596595,3.53,20.7,4.5,110
信義計劃-松雍4A,18888,18888,大樓,無,121.570074796,25.0337593658,18.14,53.66,11.66,110
信義計劃-松雍4B,19988,19988,大樓,私有,121.570222317,25.0337642266,18.14,53.66,11.66,110
花蓮市建地,988,988,土地,無,121.5988,23.97403,28.13,,0,110
北醫芳鄰收租二樓,2077,2077,公寓,無,121.564268052,25.0255989216,9.45,25.59,1.95,110
獨家市府捷運旁邊間住辦春秋大廈,4998,4998,大樓,無,121.565135478,25.0412949167,3.88,39.23,1.27,110
國際名紳豪邸,7280,7280,大樓,私有,121.57497109,25.0377320211,5.58,44.27,8.2,110
101高第景觀樓中樓,4900,4900,大樓,私有,121.569052536,25.0458458393,4.22,25.74,3.2,110
北醫新收租一樓,3288,3288,公寓,無,121.563485783,25.0231385607,12.88,38.71,2.88,110
信義區六張犁捷運美宅,2250,2250,公寓,無,121.555591226,25.0221651804,11.19,27.75,3.26,110
北醫庭院三房一樓,2600,2600,華廈,無,121.564812888,25.0256577635,7.08,26.61,2.24,110
K694五股御史路保護區林地,388,388,土地,無,111.111111,22.222222,200.68,,,110
Y560北醫成家景觀大空間,2050,2050,公寓,無,121.563969514,25.0247875523,10.68,26.9,4.24,110
E03北醫旁公園景觀3房美寓,1968,1968,公寓,無,121.563969514,25.0247875523,10.68,26.9,4.24,110
信義松菸北城世貿辦公大樓,8688,8688,大樓,私有,121.571025431,25.0458845305,8.85,64.82,10.63,110
哥德堡綠意名邸,5900,5900,大樓,私有,121.569489122,25.0204477959,15.66,48.45,9.56,110
國父紀念館黃金店面,4980,4980,大樓,無,121.558220785,25.037512216,2.72,16.14,2.94,110
市府永吉透天+店,9850,9850,透天,無,121.568864831,25.043317745,24.8,31.11,,110
吳興國小庭院車庫一樓,3980,3980,公寓,無,121.565938996,25.0253305998,8.41,25.79,2.75,110
莊敬黃金3樓美寓,2260,2260,公寓,無,121.567924793,25.0269119836,8.77,24.07,2.75,110
信義豪宅露台戶5房平車,9680,9680,大樓,私有,121.57424722,25.0358454209,16.38,43.54,25.64,110
市府捷運永吉路30巷透天店辦,9688,9688,透天,無,121.568860151,25.0431949525,24.2,31.11,0,110
富陽街靜巷美寓四房,2890,2890,公寓,可租,121.555914543,25.0229566941,13.45,41.16,3.65,110
永春站一樓+坡平車位,4500,4500,華廈,私有,121.575123913,25.039855743,13.63,27,22.1,110
忠孝家美金融永春站辦公,7288,7288,大樓,私有,121.578749633,25.0411149684,5.71,50.24,6.34,110
忠孝世貿IC永春站辦公,5998,5998,大樓,私有,121.577992507,25.0405974439,4.07,44.02,0,110
信義邊間一樓雙層,5980,5980,公寓,無,121.570672775,25.0238130684,11.62,52.41,8.38,110
永春博愛美妝三樓,2088,2088,公寓,無,121.576308082,25.0354160425,9.07,18.7,1.77,110
永春捷運四季台北倉儲車位,250,250,華廈,私有,121.57420626317,25.0411095206658,0.01,1.87,0,110
信義基隆聚富商辦,13800,13800,大樓,私有,121.553262815,25.0247971532,12.22,85.67,20.11,110
基隆路二段坡機車位,180,180,大樓,私有,121.553741473,25.02517375,0.5,0.01,0.01,110
挹翠甫園大套房,680,680,華廈,無,121.569897883,25.0201480338,2.87,8.12,0,110
信義香榭景觀兩房車,3468,3468,大樓,私有,121.574341008,25.0337026168,4.27,14.53,2.73,110
四四東村+車位,3980,3980,大樓,私有,121.564038922,25.0260497133,9.76,23.09,3.1,110
太陽磁場四房坡平車,5388,5388,大樓,私有,121.575367967,25.0353469683,8.57,43.12,4.94,110
信義區土地含獨棟透天,1980,1980,透天,無,121.570919669,25.016409018,88.63,,,110
海華稀有邊間一樓+坡車,4500,4500,華廈,私有,121.575123913,25.039855743,13.63,27,22.1,110
信義區持份土地,2180,2180,土地,無,121.567074957622,25.0331827042986,99.14,99.14,,110
台北市信義區土地,26546,26546,土地,無,121.567053,25.033165,1021.09,,,110
255北市信義區農地,26546,26546,土地,,121.564793914,25.0123089112,1021.09,,0,110
海華邊間住辦一樓坡車,4500,4500,華廈,私有,121.575123913,25.039855743,13.63,27,22.1,110
D202信義區千坪保護農地,26546,26546,土地,無,121.567154,25.010178,1021.09,,0,110
101象山站邊間三房一手屋美寓,1850,1850,公寓,無,121.576148977,25.0332950616,7.05,21.09,2.45,110
潤泰極品商用大戶,6800,6800,大樓,私有,121.569014383,25.0483537087,11.04,51.17,4.72,110
信義香榭美2房+車位,3380,3380,大樓,私有,121.574341008,25.0337026168,4.47,15.48,2.9,110
忠駝店面,5888,5888,大樓,無,121.560454233,25.0348954097,4.86,16.21,1.79,110
超優一樓低總美宅,2480,2480,公寓,無,121.556609853,25.0259753492,10.39,24.1,4.01,110
信義區中式典藏壹樓,3198,3198,公寓,無,121.569271355,25.0177626261,10.1,30.91,3.77,110
永春站旺店面,6150,6150,公寓,無,121.577999396,25.0402026404,8.32,15.41,5.91,110
忠孝店辦住一樓美屋,5980,5980,華廈,無,121.580139901,25.0415616079,9.75,36.89,8.16,110
宏觀天廈帝景樓中樓,5988,5988,大樓,私有,121.571145409,25.0188295637,15.28,53.68,19.78,110
財經世紀景觀辦公,8800,8800,大樓,私有,121.556008092,25.0272101187,20.5,83.02,9.3,110
挹翠101花園別墅,7888,7888,別墅,私有,121.575104,25.016743,75.02,59.73,6.97,110
信義市府捷運店面,14720,14720,大樓,無,121.566781351,25.0445197759,15.85,52.31,0,110
世貿北醫連鎖店,31225,31225,華廈,無,121.563617714,25.0279232771,11.24,133.97,6.66,110
世貿北醫獨棟大戶,13500,13500,華廈,無,121.563617714,25.0279232771,25.48,114.61,18.14,110
市府捷運百坪金店,14720,14720,大樓,無,121.566781351,25.0445197759,15.85,141.77,0,110
祥雲千萬尊貴獨棟別墅,7888,7888,透天,私有,121.575135165,25.0167434829,73.81,49.64,10.09,110
信義區五分埔精華店面,7988,7988,公寓,無,121.579017328,25.0476998717,8.39,26.08,2.52,110
市府捷運黃金店,14720,14720,大樓,無,121.566781351,25.0445197759,15.85,52.31,,110
信義香榭Ⅰ,3530,3530,大樓,私有,121.574341008,25.0337026168,4.27,14.53,2.73,110
047-信義市府捷運黃金店面,14720,14720,大樓,無,121.566760788135,25.0445376948868,15.85,43.46,8.84,110
聯合大哲高樓豪景一層一戶頂豪,31888,31888,大樓,私有,121.563690051,25.0414664317,14.07,85.62,12.61,110
永吉收租置產戶,3580,3580,大樓,無,121.568948408,25.0455261723,4.61,33.5,2.57,110
市府捷運百坪金店,14720,14720,大樓,無,121.566781351,25.0445197759,15.85,141.77,0,110
皇翔御琚信義計畫區,48000,48000,大樓,私有,121.571246,25.036776,47.2,104.65,17.55,110
世貿101捷運金雞母,3548,3548,大樓,無,121.55870886,25.0319214045,9.13,33.67,0,110
吳興總站店住辦,2650,2650,華廈,無,121.56887903,25.0222851001,3.46,12.81,0.98,110
北醫雅緻二樓,2268,2268,公寓,無,121.565628169,25.0261060168,8.85,22.32,2.92,110
信義香榭~101美景+坡平車位,3488,3488,大樓,私有,121.5741584,25.0339076,4.27,14.53,2.73,110
市府捷運站A級店面,14720,14720,大樓,無,121.566781351,25.0445197759,15.85,141.77,,110
未來廣慈捷運公寓二樓方正三房,2488,2488,公寓,無,121.583975715,25.0401886102,11.04,28.1,0,110
永春海華邊間一樓,3460,3460,華廈,無,121.575297614,25.0397539091,8.78,19.85,19.69,110
世貿101捷運住辦,2690,2690,華廈,無,121.556467083,25.027607511,3.67,25.23,1.66,110
101地段整層商辦,5690,5690,大樓,無,121.559391856,25.0324144004,6.3,40.84,2.86,110
101世貿整層商辦,5690,5690,大樓,無,121.559391856,25.0324144004,6.3,46.97,2.86,110
捷運市政府站收租起家厝1,6500,6500,大樓,無,121.567322099,25.0455463818,8.02,58.09,6.22,110
國館大面寬金角店,3800,3800,華廈,無,121.558324007,25.0364406873,3.5,14.63,4.41,110
上林苑花園別墅,9500,9500,別墅,私有,121.576939578,25.019347698,103.76,65.04,37.82,110
超寬金店面松山+市府雙捷運,3588,3588,公寓,無,121.56777706,25.0450423585,6.98,20.5,0,110
永吉五分埔面寬金店,5800,5800,公寓,無,121.580244283,25.0455374267,7.21,29.58,1.33,110
大巨蛋松菸店面,4500,4500,大樓,無,121.564794286,25.0421163357,3.46,29.64,,110
永春三角金店,6100,6100,大樓,無,121.577570737,25.0396162401,4.15,28.99,2.21,110
松德傳家金店,6500,6500,大樓,私有,121.575747009,25.0382717974,3.31,22.02,2.96,110
信義區六張犁捷運3房,2880,2880,大樓,無,121.553031538,25.0244796602,3.78,24.48,3.29,110
首善鑽石捷運管理大廈,2880,2880,大樓,無,121.553031538,25.0244796602,3.79,24.48,3.29,110
信義區黃金地段電梯三房,2880,2880,大樓,無,121.553031538,25.0244796602,7.43,24.48,3.29,110
永春捷運站空中花園商辦,8688,8688,大樓,私有,121.579622605,25.0420541572,19.15,32.35,57.41,110
獨家環球世貿大樓看101景觀,7150,7150,大樓,私有,121.570916153,25.0281586572,10.21,38.18,9.08,110
吳興361巷大三房寓,2680,2680,公寓,無,121.566940397,25.025914941,9.81,28.54,5.49,110
信義世貿邊間綠蔭美寓,2500,2500,公寓,無,121.570672775,25.0238130684,11.62,36.57,0,110
市府站挑高金店面,7980,7980,華廈,無,121.56707138,25.0450932221,13.47,86.69,1.55,110
北醫電梯邊間大戶,3850,3850,華廈,無,121.563872246,25.0229257972,12.36,40.3,10.3,110
信義區靜巷一樓有車位,3198,3198,公寓,私有,121.572229424,25.0181666111,10.1,30.91,3.77,110
E15梨富公園旁都更華廈,2258,2258,華廈,無,121.556804147,25.0207169515,6.42,18.74,1.57,110
信義一品精美小豪宅,3188,3188,華廈,私有,121.570655716,25.0443579772,6.37,12.1,2.23,110
信義三角窗金店面,6868,6868,華廈,無,121.576863955,25.035116865,8.08,38.83,1.43,110
194仁愛林蔭-樹海之境信義核心靜謐大宅,13500,13500,大樓,私有,121.557861936,25.037517687,4.05,34.76,1.53,110
信義誠家高樓路台,4298,4298,華廈,私有,121.565581991,25.0244541552,8.43,16.78,2.61,110
北醫284巷稀有坡平車位,350,350,公寓,私有,121.562698247,25.0228039185,1.93,11.62,0,110
8105新世界坡平車位,350,350,大樓,私有,121.560986163,25.0323129924,0.11,,0,110
(369)3甲台北聯絡線旁土地,26546,26546,土地,無,121.56725,25.00991,1021.09,,,110
A200吳興街低總價二樓,1320,1320,公寓,無,121.566443001,25.024439128,6.59,15.03,2.67,110
B7信義區Yes世貿車位,228,228,大樓,私有,121.560687959,25.0324039416,0,,,110
富陽邊間面寬店辦車庫,3500,3500,公寓,無,121.557677293,25.0227734294,19.96,21.8,0,110
吳興國小一樓收租屋,1999,1999,公寓,無,121.566548038,25.0249360556,8.79,20.56,3.03,110
信義永吉艾蜜麗,2280,2280,華廈,無,121.569887017,25.046320984,3.93,7.17,2.1,110
吳興靜巷方正大3房,2680,2680,公寓,無,121.566940397,25.025914941,9.81,28.54,5.49,110
吳興街金雞母收租一F,3288,3288,公寓,無,121.563485783,25.0231385607,12.88,38.71,2.88,110
忠孝東路廣慈美寓2樓,2488,2488,公寓,無,121.583975715,25.0401886102,11.04,28.1,0,110
捷運市政府站收租起家厝2,6500,6500,大樓,無,121.567322099,25.0455463818,4,49.3,15.17,110
秒殺永吉路稀有溫馨三房,3680,3680,大樓,無,121.571399498,25.0457753484,4.73,24.78,2.06,110
國館忠駝明亮3房,3688,3688,大樓,抽籤,121.558834706,25.0348818517,7.13,23.97,3.92,110
信義高樓大套房,1280,1280,大樓,無,121.557615018,25.0319950433,1.08,8.52,,110
E08世貿101邊間美妝3房,2268,2268,公寓,無,121.565628169,25.0261060168,8.85,22.32,2.92,110
廣慈雙捷運三樓寓,2198,2198,公寓,無,121.585022525,25.0413893705,6.54,17.23,1.41,110
六張犁邊間二樓,2500,2500,公寓,無,121.556298777,25.0220604043,10.97,25.07,3.58,110
莊敬路金店面住辦可,3300,3300,公寓,無,121.56686285,25.0278648254,8.32,22.19,3.82,110
101電梯大戶坡平車,7580,7580,華廈,私有,121.56508761,25.0287640129,8.73,59.76,6.92,110
Y579信義世貿高樓商辦２,6188,6188,大樓,無,121.559523837,25.0333677426,3.96,38.4,0,110
台北京華景觀商辦大樓,9688,9688,大樓,私有,121.567237025,25.0465957916,17.05,50.04,0,110
永春捷運景觀華廈,3788,3788,華廈,無,121.577555268,25.042156958,6.75,28.4,8.76,110
信義區豪景大辦公,23300,23300,大樓,私有,121.578749633,25.0411149684,18.1,146.66,17.37,110
仁愛首排大四房,7998,7998,大樓,私有,121.559408725,25.0374697676,7.83,37.19,5.67,110
新川普信義美室,2080,2080,大樓,私有,121.573524035,25.0338835806,2.44,7.97,1.6,110
永吉邊間面寬金店,5580,5580,大樓,無,121.569083428,25.04551585,5.13,36.32,1.44,110
松山車站金店面,4250,4250,華廈,無,121.577025635,25.0479533495,5.23,18.36,2.28,110
世貿公園景觀邊間三房,2050,2050,公寓,無,121.563969514,25.0247875523,10.68,26.9,4.24,110
松隆鼎家綠蔭美宅,2380,2380,公寓,無,121.572632595,25.0486325926,7.8,25.84,4.53,110
昌承辦-松隆美寓大空間五樓,2380,2380,公寓,無,121.572632595,25.0486325926,7.8,25.84,4.53,110
北醫小資精選二房,1380,1380,公寓,無,121.561299749,25.0228703863,4.6,16.48,2.73,110
逸仙明珠機械車位,128,128,華廈,私有,121.573494046,25.0419178131,0.72,4.38,0,110
Y578信義世貿高樓商辦１,10500,10500,大樓,私有,121.559523837,25.0333677426,8.41,59.11,0,110
台北京華景觀商辦大樓,9688,9688,大樓,私有,121.567237025,25.0465957916,17.05,50.04,0,110
信義大悅精裝雙車位美辦,7500,7500,大樓,私有,121.567140434,25.0473661657,15.79,48.71,5.08,110
永春站EAT挑高4米5全新2房,2480,2480,大樓,無,121.576248647,25.0410543596,4.64,6.9,0.54,110
面101景觀2房車捷運象山站,3488,3488,大樓,私有,121.574341008,25.0337026168,4.27,14.53,2.73,110
永春捷運鼎佳收租,3398,3398,公寓,無,121.574868115,25.043278137,11.95,32.41,,110
新世界面101精裝美景,2600,2600,大樓,無,121.561035085,25.0321888953,1.95,9.15,1.21,110
$松菸住辦店一樓,3200,3200,公寓,無,121.562984076,25.0445014028,5.81,29.35,1.53,110
台北信義計畫區北城世貿辦公室,9650,9650,大樓,私有,121.571025431,25.0458845305,8.85,64.82,10.63,110
吳興邊間大一樓,2680,2680,公寓,無,121.572151,25.017564,8.06,23.42,1.42,110
B4-101捷運低總置產宅,1298,1298,大樓,無,121.557614636,25.0318425682,0.69,4.9,0.84,110
冠德遠見好宅,14950,14950,大樓,私有,121.572150486,25.0330506257,13.78,46.65,7.04,110
首善之都必留一居,14450,14450,大樓,私有,121.57198,25.033197,13.49,46.65,7.04,110
冠德遠見2戶打通,29400,29400,大樓,私有,121.57198,25.033197,27.27,93.31,14.08,110
永春捷運一樓,3480,3480,華廈,無,121.575281,25.039765,8.78,19.85,19.69,110
皇翔御琚名邸,48000,48000,大樓,私有,121.571235309,25.0367262141,47.2,104.65,17.55,110
精品MOMA美宅,2188,2188,大樓,私有,121.573344862,25.0407706551,2.13,6.89,0.6,110
台北信義高樓美景,29950,29950,大樓,私有,121.570041126,25.0335549817,20.31,69.24,10.2,110
永春永吉收租金店,7507,7507,大樓,無,121.57250274,25.0457405451,5.16,33.24,1.47,110
台北信義朝北歐式豪邸,31000,31000,大樓,私有,121.570041126,25.0335549817,20.31,69.24,10.2,110
羅浮宮獨梯高商辦,20560,20560,大樓,私有,121.558265874,25.0328291527,9.14,61.87,5.11,110
&信義之星豪宅王,36800,36800,大樓,私有,121.564985256,25.0309354614,51.06,81.32,7.63,110
信義板南捷運店面,7800,7800,華廈,無,121.581593101,25.0434444906,4.46,21.8,2.01,110
永春捷運商三永吉金店,7507,7507,大樓,無,121.57250274,25.0457405451,5.16,33.24,1.47,110
永吉松信金店面,7507,7507,大樓,無,121.57250274,25.0457405823,5.16,33.24,1.47,110
台北世貿世際金融商辦,20560,20560,大樓,私有,121.558265874,25.0328291155,9.14,61.87,5.11,110
潤泰極品挑高6米大店面,33965,33965,大樓,私有,121.569014383,25.0483537087,28.82,162.39,6.79,110
光復南路三角窗一樓,8000,8000,公寓,無,121.558506594,25.0362267901,9.65,29.14,6.77,110
五分埔角間透天店霸,8980,8980,透天,無,121.57831244,25.0465705322,8.17,23.9,0,110
後山埤捷運小豪宅,2980,2980,華廈,私有,121.582545573,25.0430422848,4.18,12.48,2.93,110
台北信義景觀豪邸,29950,29950,大樓,私有,121.570041126,25.0335549817,20.31,69.24,10.2,110
101景觀電梯鼎佳,5688,5688,大樓,無,121.559242597,25.0321622358,3.96,29.83,3.98,110
忠孝東住三之1收租寶,3200,3200,公寓,無,121.580518953,25.042754482,8.32,23.88,0,110
松信永吉收租金店,7507,7507,大樓,無,121.57250274,25.0457405823,5.16,33.24,1.46,110
國館三角窗金賺錢店舖,20700,20700,大樓,無,121.557706462,25.0361178577,6.11,41.21,7.63,110
018-紀念館捷運金店面,20700,20700,大樓,無,121.557698373922,25.0361027367526,6.11,41.21,7.64,110
忠孝界極品庭院小豪宅,2680,2680,華廈,私有,121.582461467,25.0430067846,3.63,10.37,2.9,110
永吉收租金店,7507,7507,大樓,無,121.57250274,25.0457405823,5.16,33.24,1.47,110
帛詩華後棟高樓2房車,3600,3600,大樓,私有,121.555552541,25.0268082713,2.2,16.11,3.61,110
130-紀念館精品三房,3873,3873,大樓,無,121.557702522,25.035891138,2.48,20.71,4.67,110
新川普,1800,1800,大樓,無,121.573524035,25.0338835806,2.35,7.97,1.6,110
信義路三角窗金店,7880,7880,華廈,無,121.576863955,25.035116865,8.08,38.83,1.43,110
時尚MOMA精品宅,2188,2188,大樓,私有,121.573344862,25.0407706551,2.13,6.89,0.6,110
領袖名邸．總裁行館,26800,26800,華廈,私有,121.572441486,25.0382175825,37.34,74.54,6.2,110
信義區黃金2樓~方正3房,2598,2598,公寓,無,121.583975715,25.0401886102,11.04,28.1,0,110
大巨蛋松菸▲金店面,19000,19000,華廈,無,121.562882808,25.0431039513,10.58,24.86,22.78,110
【永春站｜忠孝東路・住辦店面】,3480,3480,華廈,無,121.575297614,25.0397539091,8.78,19.85,19.69,110
忠孝東路五段M0MA小豪宅,2188,2188,大樓,私有,121.573344862,25.0407706551,2.13,6.89,0.6,110
130世紀金融商辦,20500,20500,大樓,私有,121.558265874,25.0328291527,9.14,61.87,5.11,110
專任!信義麗心高樓2房,2780,2780,大樓,無,121.570135,25.045378,2.59,10.58,1,110
時尚MOMA挑高小豪宅+車位,2188,2188,大樓,私有,121.573344862,25.0407706551,2.13,6.89,0.6,110
忠孝101高樓美裝景觀宅,6200,6200,大樓,私有,121.5673989,25.0412796,3.63,17,4.6,110
信義區三角窗收租店面,20700,20700,大樓,無,121.557696,25.036125,6.11,41.21,7.64,110
小資新婚首選(信義小貴族)電梯,1620,1620,華廈,無,121.566815671,25.0249573159,3.17,10,0.89,110
F16信義永馨優質三房,3873,3873,其他,無,121.557702522,25.0358911752,20.71,20.71,4.67,110
聯合大哲,35336,35336,大樓,私有,121.563690051,25.0414664317,14.06,85.62,12.61,110
市府站30巷透天,9888,9888,透天,無,121.568598188,25.0434895621,26.92,20.83,,110
信義W110精緻美宅,1868,1868,大樓,無,121.557580139,25.0307316573,1.28,7.85,0.58,110
聯合大哲,36287,36287,大樓,私有,121.563690051,25.0414664317,15.38,95.87,10.2,110
信義區面寬大庭院一樓,3800,3800,公寓,無,121.576111839,25.0355061925,15.5,34.93,0,110
夏宮捷運一層一戶豪邸,11706,11706,大樓,私有,121.583570647,25.0377765281,16.69,44.51,10.71,110
廣慈捷運大一樓,4300,4300,公寓,無,121.58235731,25.0373009305,9.66,17.77,6.26,110
挹翠遠眺101景觀華廈,2880,2880,華廈,無,121.574367946,25.0192878854,11.15,35.83,4.98,110
Y166後山埤大面寬千坪廣場,29880,29880,大樓,無,121.58143195,25.0407169234,109.78,34.57,5.19,110
忠孝東路頂級商辦,8688,8688,華廈,私有,121.579622605,25.0420541572,19.15,32.36,57.41,110
宏築信義景觀次頂樓大戶,10988,10988,大樓,私有,121.559325,25.018804,,56.14,7.18,110
信義香榭美2房,3298,3298,大樓,無,121.574341008,25.0337026168,4.37,15.48,2.9,110
信義國泰收租頂寓,2388,2388,公寓,無,121.575174287,25.0322032512,8.41,18.4,7.63,110
大巨蛋收租花園美寓,3880,3880,公寓,無,121.563508577,25.043171166,10.77,26.19,4.34,110
信義巨龍商辦,4288,4288,大樓,無,121.558461163,25.0332629992,4.89,32.58,1.75,110
信義富邦美術館大一樓,7188,7188,華廈,無,121.571572193,25.0396813961,8.71,33.26,3.3,110
E42信義帝國挑高美店面,8300,8300,大樓,私有,121.56958533,25.0458378281,7.23,34.86,2.42,110
饒河商圈挑高旗艦店,26980,26980,大樓,私有,121.569014383,25.0483537087,28.83,162.38,6.79,110
101高第景觀宅,4900,4900,大樓,私有,121.569052536,25.0458458393,4.22,25.74,3.2,110
信義The One店面車位,5880,5880,大樓,私有,121.575273636,25.0420600324,6.49,19.14,1.11,110
北醫電梯新裝小套,688,688,華廈,無,121.563970517,25.0245693726,1.11,3.83,0.85,110
北醫羅丹電梯美裝套,688,688,華廈,無,121.563970517,25.0245693726,1.11,3.83,0.85,110
廣慈捷運2+1房,1800,1800,公寓,無,121.585169785,25.0392337279,8.98,20.74,0,110
101超值景觀鼎佳,2780,2780,公寓,無,121.571474599,25.0234983401,9.24,28.47,3.3,110
信義區稀有，地段＋空間雙優勢,5268,5268,華廈,無,121.559423328,25.0311723064,14.65,28.58,2.32,110
101景觀超值鼎佳美寓,2780,2780,公寓,無,121.571474599,25.0234983401,9.24,28.47,3.3,110
世貿歐香景觀住辦,2900,2900,大樓,無,121.558173824,25.0301376178,2.9,30.75,2.98,110
B204信義文教設計小宅,1620,1620,華廈,無,121.566815671,25.0249573159,3.17,10,0.89,110
松山信義路口店面,7150,7150,公寓,無,121.578417409,25.0359457023,12.97,30.83,8.29,110
象山人潮高投報金店,8800,8800,公寓,無,121.570691608764,25.0273027946374,7.26,18.74,,110
御璽精裝庭院戶,13888,13888,華廈,私有,121.564595305,25.0297731904,30.68,55.9,4.89,110
國父紀念館頂樓大空間,3250,3250,公寓,無,121.558667474,25.0362216977,8.42,26.13,1.96,110
台北醫學商圈美寓3房,2268,2268,公寓,無,121.565628169,25.0261060168,8.85,22.32,2.92,110
J3永吉大面寬金店面,7507,7507,大樓,無,121.57250274,25.0457405823,5.16,33.24,1.47,110
信義101全新裝潢美三房,2268,2268,公寓,無,121.565628169,25.0261060168,8.85,25.24,0,110
J2光復南路三角店,20700,20700,大樓,無,121.557707558,25.0361769469,6.11,41.21,7.64,110
信義MRT巨蛋收租金庫,47500,47500,大樓,私有,121.565167097,25.0427345939,32.79,178.91,6.57,110
北醫低公設電梯,5980,5980,華廈,無,121.562764416,25.0291435622,13.09,44.09,7.14,110
唯一忠孝東路五段正門牌公園2樓,2600,2600,公寓,無,121.580549983,25.0427841084,7.18,23.88,0,110
夏宮捷運獨戶美妝豪宅,13506,13506,大樓,私有,121.583570647,25.0377765281,87.87,44.51,10.71,110
正面虎林街燙金店面,3600,3600,公寓,無,121.577092913,25.0378564565,8.4,22.72,2.85,110
麟光捷運一樓,2980,2980,公寓,無,121.558014739,25.0217993161,7.99,23.66,3.59,110
信義區吳興街收租三套房,3980,3980,公寓,無,121.560081856,25.0282132724,8.39,29.16,0,110
信義商圈景觀高樓,2780,2780,大樓,私有,121.560560914,25.0323107808,2.4,8.46,1.16,110
近永春捷運角窗黃金店面,5800,5800,公寓,無,121.57897412,25.0407197227,9.98,27.84,0,110
信義The One樓中樓,16998,16998,大樓,私有,121.57526733,25.0415309489,16.23,40.67,11.07,110
信義黃金二樓美寓三房,2380,2380,公寓,無,121.563986123,25.022243039,8.53,23.71,2.34,110
市府信義TEMPO店面附雙車,6588,6588,華廈,私有,121.570188886,25.044908902,8.37,21.19,3.11,110
北醫商圈全新裝潢3房美宅,2268,2268,公寓,無,121.565628169,25.0261060168,8.85,22.32,2.92,110
吳興街增值一樓,3300,3300,公寓,無,121.560122061,25.0302637176,7.08,24.98,3.81,110
市府信義TEMPO附車,6538,6538,華廈,私有,121.570188886,25.044908902,8.37,21.19,3.11,110
市府信義TEMPO店面,6188,6188,華廈,無,121.570188886,25.044908902,7.93,21.19,3.11,110
信義誠家高樓露台戶,4298,4298,大樓,私有,121.565762811,25.0244116038,8.43,16.78,2.61,110
Tony嚴選-家的四季之2樓房,2680,2680,公寓,無,121.57687774,25.042331643,7.36,21.42,2.3,110
光復三角窗金店面,6200,6200,公寓,無,121.560256661,25.0363892034,5.9,16.63,18.31,110
新寶信義鋼骨景觀住辦,7800,7800,大樓,無,121.565791498,25.0429011504,3.97,38.07,3.69,110
信義松德精華店面,4500,4500,大樓,無,121.575448778,25.0376381627,2.19,16.01,4.41,110
Tony嚴選-家的四季之5樓房,2680,2680,公寓,無,121.57687774,25.042331643,7.36,13.62,1.85,110
Tony嚴選-家的四季之3樓房,2680,2680,公寓,無,121.57687774,25.042331643,7.36,21.42,2.3,110
【信邑】近市府面寬金店面,4880,4880,華廈,私有,121.568373977,25.0448349459,6.09,16.59,0.98,110
上林苑獨棟景觀花園別墅,10988,10988,別墅,私有,121.576939578,25.019347698,103.76,65.04,37.82,110
廣慈低總三樓美寓,1988,1988,公寓,無,121.586605201,25.0395611387,6.96,20.57,2.44,110
♥上林苑101景觀別墅,8500,8500,別墅,無,121.576769921,25.018583523,90.75,55.52,33.11,110
新寶信義鋼骨景觀住辦,7800,7800,大樓,無,121.565791498,25.0429011504,3.97,38.07,3.69,110
樂揚映白全新2房2衛平車,4188,4188,大樓,私有,121.557325,25.027708,,17.62,1.7,110
信義御璽庭園一樓雙車,13888,13888,華廈,私有,121.564595305,25.0297731904,30.68,55.9,4.89,110
Tony嚴選-家的四季之4樓房,2680,2680,公寓,無,121.57687774,25.042331643,7.36,21.42,2.3,110
上林苑景觀別墅,9880,9880,別墅,私有,121.576939578,25.019347698,103.76,65.04,37.82,110
信義麗心成家2房首選-預售,2680,2680,大樓,無,121.570135,25.045378,2.59,10.58,1,110
上林苑獨棟別墅,9880,9880,別墅,私有,121.576939578,25.019347698,103.76,65.04,37.82,110
信義財經高樓ㄧ路發,5380,5380,大樓,無,121.558720199,25.0332575285,5.4,36.82,4.76,110
六張犁稀有金店面,5500,5500,華廈,無,121.556820241,25.0212967202,5.99,22.23,21.84,110
福德街福人居１Ｆ,2800,2800,公寓,無,121.586089152,25.0414332466,2.8,10.4,19.8,110
博愛學區永春站美妝電梯2房,2988,2988,大樓,無,121.577686366,25.0379360598,5.44,19.86,1.74,110
信義新寶景觀高樓住辦,7800,7800,大樓,無,121.565791498,25.0429011504,3.97,38.07,3.69,110
市府捷運永吉路30巷透天店辦,13500,13500,透天,無,121.568860151,25.0431949525,24.2,31.11,,110
信義區都更屋,5388,5388,公寓,無,121.571938695,25.0440492218,16.03,46.28,0,110
信義世貿高值店面,4980,4980,大樓,無,121.558832704,25.0335314725,4.12,24.33,1.42,110
北醫高投低總收租店面,3980,3980,公寓,無,121.566222194,25.0267837128,8.39,19.72,0,110
信義計畫區台北高峰會,16800,16800,大樓,私有,121.569340274,25.0295692445,35.43,63.85,17.92,110
六張犁國泰方正3房美寓,2268,2268,公寓,無,121.557829182,25.0222327181,8.65,26.7,2.85,110
挹翠獨棟別墅遠眺101,10000,10000,別墅,無,121.574575155,25.0172267369,68.36,79.74,66.44,110
世貿吳興街兩房二樓美寓,1480,1480,公寓,無,121.561557032,25.0230722236,4.78,16.72,1.94,110
信義世貿低總三房二樓美寓,1480,1480,公寓,無,121.561557032,25.0230722236,4.78,16.72,1.94,110
信義北醫商圈美妝黃金三樓,1980,1980,公寓,無,121.570219662,25.0184457379,7.67,24.45,3.04,110
信義露台美三房,3388,3388,華廈,私有,121.570477946,25.018373759,9.57,18.54,7.85,110
松智美裝世貿新城,5988,5988,大樓,私有,121.566081467,25.0308502215,12.46,24.69,3.6,110
都更高潛力高檔裝潢公寓一樓有車位,4980,4980,公寓,無,121.576603845,25.0447282002,11.99,26.63,3.39,110
忠孝東路公寓3房,2488,2488,公寓,無,121.583975715,25.0401886102,11.04,24.6,3.5,110
富陽三角窗壹樓,2980,2980,公寓,無,121.557403544,25.0227504421,8.56,23.66,0,110
象山站信義特區邊間美寓,2400,2400,公寓,無,121.570910849,25.0236458447,11.57,28.02,0,110
永春EAT樓中樓精品小豪宅,2698,2698,大樓,無,121.576248647,25.0410543596,2.32,8.43,0.51,110
北醫101景觀大露台3房+車位,4298,4298,華廈,私有,121.565581991,25.0244541552,8.43,16.78,2.61,110
忠駝大陸建設都更案甲區,8600,8600,華廈,無,121.56004843,25.0356806338,12.47,21.65,2.16,110
國父紀念館黃金地段鼎佳,3250,3250,公寓,無,121.558667474,25.0362216977,8.42,26.13,1.96,110
象山捷運靜巷一樓,4360,4360,公寓,無,121.575341349,25.0326408597,9.43,29.6,4.13,110
太子永吉收租店面,3680,3680,大樓,私有,121.567683921,25.0455645171,3.81,21.78,1.28,110
象山站信義特區邊間美寓,2400,2400,公寓,無,121.570910849,25.0236458447,11.57,28.02,0,110
六張犁公園邊間金店,5500,5500,華廈,無,121.556820241,25.0212967202,5.99,22.23,21.84,110
永春捷運方正3房華廈,3388,3388,華廈,無,121.576766446,25.0433509963,9.03,23.43,3.02,110
&永春捷運站店面,6150,6150,公寓,無,121.577999396,25.0402026404,8.32,15.41,5.91,110
信義川普高樓四房,8900,8900,大樓,私有,121.576627993,25.048116227,11.36,39.59,6.46,110
吳興街北醫商圈美妝三房,2268,2268,公寓,無,121.565628169,25.0261060168,8.85,25.24,0,110
世貿時尚典雅居,2680,2680,大樓,無,121.558461163,25.0332629992,2.65,17.65,0,110
基泰國際面中庭3房平車,5688,5688,大樓,私有,121.553639824,25.0249562688,4.01,22.88,6.04,110
Y199後山埤捷運大面寬金店,6950,6950,華廈,無,121.581414508,25.0407505585,8.14,39.08,0.6,110
世紀金融A級辦公-1,23700,23700,大樓,私有,121.558374277,25.0328279506,11.54,77.75,10.96,110
世紀金融A級辦公-2,16500,16500,大樓,私有,121.558265874,25.0328291527,8.36,49.95,0,110
富陽電梯鼎家收租,3280,3280,華廈,無,121.556169814,25.0231337208,6.01,22.88,4.98,110
信義翰邑之星豪邸,11000,11000,華廈,私有,121.570995802,25.0337261513,23.79,47.43,12.25,110
屋況超美101明亮邸佳,2988,2988,公寓,無,121.566941036,25.0260947624,10.65,32.77,3.52,110
大巨蛋松菸文創三角窗金店面,7800,7800,華廈,無,121.562872572,25.0443208014,3.07,9.17,2.96,110
莊敬路電梯美四房,3899,3899,華廈,無,121.565780714,25.02799031,7.58,27.1,6.82,110
法拉麗時尚精品,1750,1750,大樓,無,121.553209921,25.0240681753,2.75,7.9,1.25,110
世貿莊敬都更華廈,4500,4500,華廈,無,121.561151045,25.0307723909,4.91,18.64,2.6,110
光復仁愛三角窗金店面,8000,8000,公寓,無,121.558506594,25.0362267901,9.65,29.14,6.77,110
松山金店面,4780,4780,華廈,無,121.578033641,25.0379671823,7.84,27.46,14.53,110
五分埔收租5房聖品,1880,1880,透天,無,121.578655073,25.0450643798,2.02,19.16,2.04,110
信義計劃松雍13A,20420,20420,大樓,無,121.570074796,25.0337593658,18.14,53.66,11.66,110
信義計劃松雍13B,21500,21500,大樓,私有,121.570222317,25.0337642266,18.14,53.66,11.66,110
捷運富陽邊間四樓頂加,2058,2058,公寓,無,121.556266501,25.0224440082,8.62,30.9,0.76,110
信義大安文普世紀純辨大樓,6868,6868,大樓,私有,121.553262815,25.0247971532,4.68,37.83,8.42,110
虎林街原味屋鼎佳,2000,2000,公寓,無,121.576684002,25.0374128645,9.68,22.73,3.39,110
挹翠甫園方正大套房,680,680,華廈,無,121.569897883,25.0201480338,2.87,8.12,0,110
忠孝101．信義芯場美學宅,5288,5288,大樓,私有,121.56741617,25.0412999216,3.22,17,4.6,110
信義區三角邊間一樓住辦,3860,3860,公寓,無,121.557319197,25.0226221245,10.49,29.67,0,110
六張捷運收租九套房,2980,2980,華廈,無,121.556169814,25.0231337208,6.01,22.88,4.98,110
豪宅阿亮~寶徠花園極品高樓,15900,15900,大樓,私有,121.571237889,25.0333861309,15.49,56.99,8.96,110
吳興街孝親靜巷一樓五房,2399,2399,公寓,無,121.568389123,25.0238282188,7.71,13.74,12.72,110
101捷運獨棟電梯鼎家,3780,3780,華廈,無,121.56102888,25.0304775126,6.5,31.25,5.59,110
信義香榭優質２房＋車位,3488,3488,大樓,私有,121.574341008,25.0337026168,4.27,14.53,2.73,110
北醫世貿住辦4、5樓,13500,13500,華廈,無,121.563617714,25.0279232771,25.48,114.6,18.14,110
信義香榭美緻兩房,3100,3100,其他,無,121.574341008,25.0337026168,4.17,14.57,2.85,110
稀有五分埔金店,7900,7900,公寓,無,121.579017328,25.0476998717,8.39,26.08,2.52,110
北醫世貿住辦2、3樓,16100,16100,華廈,無,121.563617714,25.0279232771,25.48,114.6,18.14,110
獨家信義區透天土地,9500,9500,透天,無,121.557033642,25.0239006178,65.04,23.08,,110
