成交年月,型式,地址,成交總價(萬),單價(萬/坪),建物坪數,土地坪數,屋齡,樓層,總樓層,車位,房,廳,衛,lat,lon,備註
11502,華廈,台北市中山區長春路１３７巷５號,6200,107.66,57.59,10.48,46.3,1,7,無,無隔間,0,0,25.055613,121.532224,其他增建；
11501,大樓,台北市中山區農安街８號八樓之８,1435,76.27,18.82,1.04,16.8,8,14,有,1,1,1,25.065054,121.523705,其他增建；
11501,公寓,台北市中山區德惠街７９巷２號,650,83.09,7.82,2.89,55.9,1,4,無,無隔間,0,0,25.066862,121.528442,親友、員工、共有人或其他特殊關係間之交易；
11501,華廈,台北市中山區德惠街４５號五樓之９,750,90.42,8.29,0.91,46.3,5,9,無,1,1,1,25.066727,121.526918,陽台外推；
11412,公寓,台北市中山區復興北路５１４巷２６號三樓,1850,65.3,28.33,9.68,49.7,3,4,無,3,2,1,25.064633,121.533438,陽台外推；其他增建；
11412,華廈,台北市中山區龍江路２８８號四樓之４,1042,92.57,11.26,2.3,26,4,8,無,無隔間,0,0,25.061129,121.540668,陽台外推；其他增建；
11412,大樓,台北市中山區新生北路三段６２巷６號九樓之１,2100,73.9,28.42,1.17,43.3,9,12,無,3,2,1,25.06574,121.52721,陽台外推；其他增建；
11412,華廈,台北市中山區復興北路４０２巷２０號二樓,3400,78.34,43.4,8.47,41.9,2,7,無,3,2,2,25.0617,121.542754,
11412,公寓,台北市中山區新生北路二段１２７巷３９號,1770,70.92,24.96,11.09,0,2,3,無,3,2,3,25.059883,121.529681,其他增建；
11412,華廈,台北市中山區建國北路三段１３５號七樓,2200,52.58,41.84,8.95,36.1,7,7,無,3,2,2,25.067091,121.535094,
11412,大樓,台北市中山區農安街８號八樓之１,1300,84.48,15.39,0.96,16.8,8,14,無,無隔間,0,0,25.065054,121.523705,
11412,大樓,台北市中山區民權東路一段４８號五樓之３,1120,99.29,11.28,1.27,18.4,5,12,無,1,2,1,25.062847,121.524589,夾層；
11412,大樓,台北市中山區雙城街１３巷９號四樓之２,4150,81.83,50.72,3.68,14,4,15,有,2,2,2,25.064175,121.524782,
11412,華廈,台北市中山區吉林路１０１號四樓,2220,63.72,34.84,6.36,43.3,4,7,無,3,2,2,25.056233,121.530413,
11412,華廈,台北市中山區新生北路三段３４號六樓之２,758,68.09,11.13,1.24,31.5,6,10,無,1,1,1,25.065499,121.528083,陽台外推；
11412,大樓,台北市中山區錦州街５０號十樓之１８,880,57.44,15.32,1.45,41.5,10,13,無,1,1,1,25.060325,121.524832,
11412,大樓,台北市中山區雙城街１３巷９號六樓之３,2550,94.01,34.79,2.21,14,6,15,有,1,2,1,25.064175,121.524782,陽台外推；
11412,大樓,台北市中山區新生北路三段４３號四樓之２,950,60.71,15.65,1.99,48,4,11,無,1,1,1,25.065499,121.528083,
11412,華廈,台北市中山區松江路３３０巷５３號三樓,1385,86.09,16.09,2.41,18.3,3,9,無,無隔間,0,0,25.061289,121.531401,陽台外推；
11412,大樓,台北市中山區農安街６號十三樓之６,1410,89.88,15.69,0.96,16.8,13,14,無,無隔間,0,0,25.065054,121.523705,
11412,公寓,台北市中山區民族東路１８６號三樓,290,50.32,5.76,2.45,51.8,3,3,無,4,1,1,25.068172,121.530008,親友、員工、共有人或其他特殊關係間之交易；
11411,公寓,台北市中山區建國北路三段８１巷１２號二樓,2130,70.75,30.11,8.05,48.3,2,5,無,3,2,2,25.065682,121.537919,陽台外推；
11411,華廈,台北市中山區吉林路１２１號五樓之２,2342,78.71,29.75,5.01,40.8,5,7,無,3,2,2,25.056956,121.530303,陽台外推；
11411,華廈,台北市中山區新生北路二段１０１巷４７號五樓,3580,64.81,55.24,11.58,45.4,5,6,無,3,2,3,25.057554,121.529705,其他增建；
11411,大樓,台北市中山區農安街１０之１號九樓之１,1780,101.56,17.53,1.62,18.3,9,13,無,1,1,1,25.065054,121.523705,夾層；
11411,公寓,台北市中山區新生北路三段８８巷３６號五樓,1480,64.95,22.79,5.93,49.1,5,5,無,3,2,1,25.067812,121.526468,陽台外推；其他增建；
11411,華廈,台北市中山區林森北路６５７號二樓之１,920,49.61,18.55,1.39,21.9,2,10,有,1,1,1,25.067477,121.525927,陽台外推；
11411,公寓,台北市中山區新生北路三段５６巷４號三樓,1256.5,41.98,29.93,8.39,49.8,3,4,無,2,1,2,25.065296,121.527269,親友、員工、共有人或其他特殊關係間之交易；
11411,大樓,台北市中山區林森北路４１３號九樓之２５,1053,59.99,17.55,1.76,41.5,9,13,無,無隔間,0,0,25.059421,121.52569,
11411,大樓,台北市中山區林森北路４１３號九樓之２６,1053,59.99,17.55,1.76,41.5,9,13,無,無隔間,0,0,25.059421,121.52569,
11411,華廈,台北市中山區新生北路三段８４巷７號五樓之１,1800,60.89,29.56,5.25,48.1,5,6,無,2,2,1,25.067562,121.526966,其他增建；
11411,華廈,台北市中山區建國北路三段２２巷１３號二樓,244,26.46,9.22,2.65,33.4,2,5,無,1,1,1,25.063877,121.535643,親友、員工、共有人或其他特殊關係間之交易；
11411,華廈,台北市中山區建國北路三段１３３號五樓,2300,58.7,39.18,8.2,36.1,5,7,無,3,2,2,25.067104,121.535178,
11411,華廈,台北市中山區松江路３６２巷５號三樓,934.882,26.73,34.98,6.72,44.6,3,7,無,3,2,2,25.06204,121.532643,親友、員工、共有人或其他特殊關係間之交易；
11411,華廈,台北市中山區德惠街１６號七樓之１３,520,67.97,7.65,0.75,43.9,7,10,無,無隔間,0,0,25.066775,121.525996,建物格局：無隔間，1衛。含租約；
11411,大樓,台北市中山區林森北路４１３號六樓之５,980,49.06,19.97,1.9,41.5,6,13,無,2,1,1,25.059421,121.52569,陽台外推；
11411,公寓,台北市中山區民生東路二段９０巷１０號四樓,2000,74.86,26.72,9.38,50.4,4,4,無,4,3,3,25.057472,121.53073,陽台外推；頂樓加蓋；其他增建；
11411,大樓,台北市中山區錦州街５０號十樓之１１,680,59.37,11.45,0.97,41.5,10,13,無,1,1,1,25.060325,121.524832,陽台外推；
11411,華廈,台北市中山區民生東路三段３６號五樓之７,835,90.21,9.26,1.47,30.1,5,9,無,0,1,1,25.058159,121.539953,陽台外推；夾層；
11411,華廈,台北市中山區民生東路一段８７號七樓之２,500,78.3,6.39,0.68,29.5,7,10,無,1,0,1,25.058184,121.526803,其他增建；
11411,華廈,台北市中山區吉林路１１９巷１號五樓之１,1700,87.59,19.41,3.49,40.8,5,7,無,1,2,1,25.056858,121.530415,陽台外推；
11411,公寓,台北市中山區新生北路三段８７巷２３號二樓,1650,55.88,29.53,10.36,56.3,2,4,無,3,2,1,25.067449,121.52889,陽台外推；其他增建；
11411,公寓,台北市中山區民族東路４１０巷１０號四樓,1288,56.96,22.61,7.94,50,4,4,無,3,2,2,25.066606,121.538169,頂樓增建陽台外推；其他增建；
11411,大樓,台北市中山區五常街１１巷３號三樓之１,4140,102.15,58.26,5.79,6.5,3,17,有,2,1,2,25.064936,121.537765,地下二層停車位車位編號132號地下三層停車位車位編號75號
11411,大樓,台北市中山區林森北路５３８號六樓之５,1573,108.06,14.56,1.34,20.6,6,14,無,2,1,1,25.064465,121.525723,陽台外推；夾層；其他增建；
11411,公寓,台北市中山區龍江路３２８巷１５號四樓,2036,60.41,33.7,12.4,48.3,4,4,無,3,2,2,25.06524,121.540116,頂樓加蓋；
11411,華廈,台北市中山區農安街３４號五樓之１６,760,68.14,11.15,1.27,46.9,5,10,無,1,1,1,25.064991,121.526626,陽台外推；
11410,大樓,台北市中山區建國北路二段６６號九樓之１,4600,78.37,71.21,7.53,30.9,9,12,有,3,1,1,25.057401,121.537914,陽台外推；其他增建；
11410,大樓,台北市中山區建國北路二段６６號九樓,4600,77.83,71.36,7.53,30.9,9,12,有,3,1,1,25.057401,121.537914,陽台外推；其他增建；
11410,大樓,台北市中山區德惠街３４號五樓之２６,600,68.18,8.8,0.92,46.3,5,11,無,1,1,1,25.066744,121.526994,鐵鋁窗其他增建；
11410,華廈,台北市中山區林森北路４７２號九樓之９,640,71.04,9.01,0.8,29.7,9,10,無,無隔間,0,0,25.060563,121.525788,
11410,華廈,台北市中山區林森北路５９０之１０號,2560,70.92,36.1,4.68,59,4,10,無,4,2,2,25.065498,121.525477,親友、員工、共有人或其他特殊關係間之交易；
11410,華廈,台北市中山區建國北路三段７５巷７號,2500,42.23,59.19,7.71,43.1,1,7,無,2,1,2,25.065252,121.537703,親友、員工、共有人或其他特殊關係間之交易；
11410,華廈,台北市中山區新生北路三段８４巷２２號五樓,2703,70.5,38.34,7.2,43.3,5,6,無,3,2,2,25.067359,121.526863,陽台外推；其他增建；
11410,大樓,台北市中山區林森北路４０９號九樓之２３,673,72.78,9.25,1.06,43.8,9,12,無,1,1,1,25.059421,121.52569,凸窗增建其他增建；
11410,華廈,台北市中山區龍江路３１８巷１之１號,1650,73.75,22.37,4.19,37.3,1,7,無,1,3,2,25.064816,121.540697,其他增建；
11410,華廈,台北市中山區新生北路二段１３１之３號三樓,243.659,17.2,14.17,1.57,44.3,3,7,無,2,1,1,25.060756,121.527955,親友、員工、共有人或其他特殊關係間之交易；
11410,華廈,台北市中山區林森北路５５７巷３號五樓之６,1500,73.99,20.27,3.75,15.7,5,9,無,1,1,1,25.06562,121.525514,其他增建；
11410,公寓,台北市中山區農安街７７巷９弄１０之１號,1210,82.58,14.65,7.66,57.3,2,3,無,2,1,1,25.066098,121.528781,其他增建；
11410,公寓,台北市中山區合江街１０５巷１６號五樓,2220,64.52,34.41,8.07,40.7,5,5,無,3,2,2,25.059779,121.540028,陽台外推；頂樓加蓋；其他增建；
11410,公寓,台北市中山區新生北路三段５６巷４號二樓,1256.5,41.98,29.93,8.39,49.8,2,4,無,2,1,2,25.065296,121.527269,親友、員工、共有人或其他特殊關係間之交易；
11410,大樓,台北市中山區新生北路三段１６號四樓之１,1640,93.93,17.46,1.78,13.4,4,11,無,1,1,1,25.063664,121.528022,
11410,公寓,台北市中山區復興北路５１４巷３３號四樓,1445,49.88,28.97,9.98,48.1,4,4,無,3,2,1,25.066049,121.542672,親友、員工、共有人或其他特殊關係間之交易；頂樓加蓋；
11410,公寓,台北市中山區錦州街２３２巷１７號三樓,2580,77.48,33.3,11.72,52.3,3,4,無,3,2,2,25.059566,121.532648,陽台外推；其他增建；
11410,華廈,台北市中山區吉林路２７７號二樓,2530,68.08,37.16,6.23,45.6,2,7,無,3,1,1,25.063004,121.530492,
11410,華廈,台北市中山區林森北路４７２號三樓之４,880,81.76,10.76,1.94,29.7,3,10,無,1,1,1,25.060563,121.525788,
11410,華廈,台北市中山區龍江路３５６巷５０號八樓之２,2200,82,26.83,4.63,13,8,8,有,1,1,2,25.066155,121.539173,親友、員工、共有人或其他特殊關係間之交易；
11410,大樓,台北市中山區德惠街５２號六樓之１１,705,78.66,8.96,0.82,44.1,6,11,無,無隔間,0,0,25.066567,121.527194,
11410,大樓,台北市中山區農安街８號四樓之９,2652,76.46,38.11,2.13,16.8,4,14,有,2,1,1,25.065054,121.523705,其他增建為雨遮加蓋夾層；其他增建；
11410,華廈,台北市中山區林森北路３９９巷２６號八樓,850,65.58,12.96,1.65,25.5,8,8,無,2,0,1,25.059382,121.526222,陽台外推；其他增建；
11410,大樓,台北市中山區德惠街３４號十樓之２８,460,71.86,6.4,0.7,46.3,10,11,無,0,1,1,25.066744,121.526994,
11410,大樓,台北市中山區林森北路５７５號七樓之１９,1284,76.53,16.78,1.79,49,7,11,無,2,1,1,25.065399,121.525742,
11410,公寓,台北市中山區合江街１２７巷４號二樓,2188,73.89,29.61,8.47,52.8,2,4,無,3,2,2,25.060655,121.539516,陽台外推；其他增建；
11410,華廈,台北市中山區錦州街９５號五樓,1205,73.77,16.34,3.06,48.1,5,7,無,2,1,1,25.060474,121.528031,陽台外推；
11410,公寓,台北市中山區新生北路二段１１９巷１２號四樓,2220,64.21,34.57,11.3,50,4,4,無,3,1,3,25.058882,121.528268,陽台外推；頂樓加蓋；其他增建；
11410,華廈,台北市中山區民生東路三段３６號七樓之２,1390,70.78,19.64,1.92,30.1,7,9,有,1,1,1,25.058159,121.539953,
11410,公寓,台北市中山區松江路５２４號,5600,71.92,77.86,15.39,40.3,1,7,無,無隔間,0,0,25.066652,121.532936,其他增建；
11410,大樓,台北市中山區新生北路三段２０號,2190,78.04,28.06,3.25,44.7,1,12,無,無隔間,0,0,25.063561,121.527391,
11410,公寓,台北市中山區農安街２２７巷３弄２４號五樓,1500,63.49,23.63,6.53,42,5,5,無,3,2,1,25.064991,121.535218,親友、員工、共有人或其他特殊關係間之交易；
11410,華廈,台北市中山區林森北路４１６巷３號二樓之１,690,82.32,8.38,2.61,51.3,2,4,無,1,0,1,25.059748,121.525599,鐵鋁窗增建其他增建；
11410,公寓,台北市中山區龍江路４１２巷３５號,2750,61.34,44.83,10.57,43.4,"1,地下層",5,無,1,2,1,25.067666,121.539357,其他增建:一樓後方其他增建；
11410,華廈,台北市中山區新生北路三段３４號五樓之３,260,31.62,8.22,0.93,31.5,5,10,無,無隔間,0,0,25.065499,121.528083,親友、員工、共有人或其他特殊關係間之交易；
11410,公寓,台北市中山區合江街１１２號三樓,1850,80.61,22.95,8.09,55.4,3,4,無,3,2,1,25.059028,121.539078,其他增建；
11410,華廈,台北市中山區林森北路５５７巷３號二樓之１,1852,82.99,22.32,4.11,15.7,2,9,無,2,2,1,25.06562,121.525514,其他增建；
11410,大樓,台北市中山區新生北路三段５６巷１９號六樓,4400,98.06,54.43,6.51,16.4,6,13,有,3,2,2,25.065409,121.525943,
11410,華廈,台北市中山區新生北路三段６１號九樓之１８,980,70.34,13.93,2.06,49.5,9,9,無,1,1,1,25.067007,121.528128,陽台外推；
11410,大樓,台北市中山區德惠街３４號十一樓之２０,470,75.79,6.2,0.67,46.3,11,11,無,1,0,1,25.066744,121.526994,
11410,大樓,台北市中山區林森北路４０９號十一樓之２６,495,69.69,7.1,0.66,43.8,11,12,無,1,1,1,25.059421,121.52569,鐵鋁窗
11409,華廈,台北市中山區新生北路三段６１號二樓之２１,1600,72.16,22.17,3.21,49.5,2,9,無,2,1,2,25.067007,121.528128,親友、員工、共有人或其他特殊關係間之交易；
11409,大樓,台北市中山區松江路４６９巷４３號五樓,3000,77.61,38.66,5.51,38.2,5,11,無,3,2,2,25.065676,121.535509,
11409,華廈,台北市中山區松江路５６２號四樓之７、四樓之８,1400,54.38,25.74,5.11,29.7,4,6,無,2,1,1,25.070041,121.533885,
11409,華廈,台北市中山區龍江路２７１巷５號三樓,3300,78.58,41.99,7.85,42.4,3,7,無,3,2,2,25.059565,121.541266,陽台外推；其他增建；
11409,公寓,台北市中山區建國北路三段１１３巷２３號三樓,1628,54.4,29.93,7.3,45.5,3,5,無,3,2,2,25.067384,121.536175,陽台外推；
11409,公寓,台北市中山區民生東路二段１１５巷２８弄２４號,3608,104.54,34.51,14.44,54.3,1,4,無,3,2,2,25.059301,121.53098,其他增建；
11409,公寓,台北市中山區吉林路４０７巷２號二樓,240,93.23,2.57,0.93,53.5,2,4,無,2,2,2,25.065964,121.530713,親友、員工、共有人或其他特殊關係間之交易；
11409,公寓,台北市中山區民權東路二段９２巷８弄１３號二樓,1260,81.67,15.43,8.57,56.1,2,4,無,3,2,1,25.060838,121.531156,陽台外推；其他增建；
11409,華廈,台北市中山區雙城街４３巷７號五樓之７,660,70.72,9.33,1.38,46.9,5,7,無,1,1,1,25.067567,121.524963,鐵鋁窗增建陽台外推；其他增建；
11409,華廈,台北市中山區錦州街２３巷１２號三樓之２,1610,94.99,16.95,2.99,10.3,3,9,無,2,1,1,25.061053,121.525092,雨遮其他增建；
11409,大樓,台北市中山區林森北路４０９號六樓之２,1270,72.81,17.44,1.46,43.8,6,12,無,2,2,1,25.059421,121.52569,陽台外推；
11409,公寓,台北市中山區林森北路６３０號,3300,133.09,24.8,7.26,0,1,4,無,無隔間,0,0,25.067545,121.525545,其他增建；
11409,大樓,台北市中山區農安街２０號二樓之１４,1635,111.65,14.64,1.52,21.3,2,11,無,3,1,2,25.065054,121.523705,陽台外推；夾層；
11409,大樓,台北市中山區新生北路三段４３之４號,1280,74.43,17.2,2.24,48,1,11,無,無隔間,0,0,25.065394,121.528033,
11409,華廈,台北市中山區松江路１８４巷２６弄１６號七樓,745,84.92,8.77,1.37,17.3,7,7,有,3,2,2,25.056513,121.530544,親友、員工、共有人或其他特殊關係間之交易；陽台外推；夾層；其他增建；
11409,大樓,台北市中山區雙城街１９巷８號二樓之１０,1688,76.93,28.45,2.2,18,2,14,有,1,2,1,25.065467,121.524846,陽台外推；夾層；
11409,大樓,台北市中山區民權東路三段２０號十四樓之３,4758,81.2,58.6,8.64,29.3,14,15,有,4,2,2,25.062128,121.540435,車位以共有部分登記未約定專用先到先停
11409,大樓,台北市中山區民權東路一段６３號四樓之２,1605,55.42,28.96,2.77,45.8,4,12,無,2,2,2,25.062772,121.527232,親友、員工、共有人或其他特殊關係間之交易；
11409,華廈,台北市中山區新生北路三段１９巷１１號地下樓,2558,60.29,42.43,8.02,43.5,地下層,7,無,無隔間,0,0,25.064122,121.528376,平台增建 防火巷增建其他增建；
11409,公寓,台北市中山區吉林路４８６號,2950,79.38,37.16,15.03,51.8,1,3,無,1,2,0,25.068016,121.530315,其他增建；
11409,大樓,台北市中山區德惠街３４號七樓之１８,600,72.28,8.3,0.89,46.3,7,11,無,1,1,1,25.066744,121.526994,陽台外推；
11409,大樓,台北市中山區林森北路５７５號十一樓之８,3800,65.7,57.83,6.2,49,11,11,無,5,1,5,25.065399,121.525742,
11409,大樓,台北市中山區建國北路二段２２６巷５５號十三樓,5550,131.48,52.17,6.88,3.5,13,15,有,3,2,2,25.061122,121.535182,
11409,大樓,台北市中山區民權東路一段６１之１號二樓,1600,88.45,18.09,1.74,6.2,2,12,無,1,1,1,25.062772,121.527232,親友、員工、共有人或其他特殊關係間之交易；
11409,華廈,台北市中山區建國北路二段１５１巷２２號四樓,3000,78.34,38.29,8.25,46.3,4,7,無,3,2,2,25.061733,121.538761,親友、員工、共有人或其他特殊關係間之交易；陽台外推；
11409,大樓,台北市中山區雙城街２３號十一樓,1416,112.42,12.6,1.19,1.7,11,15,無,1,1,1,25.065941,121.524597,
11409,大樓,台北市中山區新生北路三段５６巷１號十二樓之１１,750,62.56,11.99,1.15,44.9,12,12,無,1,1,1,25.065409,121.525943,
11409,大樓,台北市中山區新生北路三段２６號十二樓之３,800,83.24,9.61,1,44.7,12,12,無,1,1,1,25.063664,121.528022,其他增建；
11409,大樓,台北市中山區林森北路４５２號十二樓之１,1118,87.93,12.71,1.23,16.3,12,14,無,1,1,1,25.060563,121.525788,增建項目：夾層、內梯增建其他增建；
11409,華廈,台北市中山區吉林路４４７巷６號三樓,2230,71.05,31.38,6.15,39.3,3,7,無,3,2,2,25.067242,121.530748,陽台外推；
11409,大樓,台北市中山區錦州街５０號八樓之２７,568,60.55,9.38,0.86,41.5,8,13,無,1,1,1,25.060325,121.524832,其他增建；
11409,華廈,台北市中山區林森北路４８５巷１６號,1212,68.15,17.78,3.16,47.8,1,7,無,0,0,1,25.06117,121.526363,
11409,華廈,台北市中山區合江街１８８巷７號四樓,3600,81.4,44.23,8.58,47.3,4,7,無,4,2,2,25.061549,121.538554,陽台外推；其他增建；
11409,華廈,台北市中山區德惠街４５號九樓之４,796,92.59,8.6,0.91,46.3,9,9,無,1,1,1,25.066727,121.526918,陽台外推；
11409,大樓,台北市中山區錦州街５０號五樓,650,63.29,10.27,1,41.5,5,13,無,無隔間,0,0,25.060325,121.524832,其他增建；
11409,公寓,台北市中山區民生東路二段１４７巷１１弄２４號四樓,1848,70.38,26.26,7.79,58.1,4,4,無,0,2,1,25.059847,121.535851,其他增建；
11409,大樓,台北市中山區林森北路４０９號三樓之１４,400,50.49,7.92,0.66,43.8,3,12,無,1,1,1,25.059421,121.52569,
11409,華廈,台北市中山區民生東路三段３６號八樓之４,820,89.79,9.13,1.5,30.1,8,9,無,1,0,1,25.058159,121.539953,
11409,華廈,台北市中山區松江路５６２號四樓之３,808,78.1,10.35,2.09,29.7,4,6,無,1,1,1,25.070041,121.533885,
11409,大樓,台北市中山區德惠街３４號三樓之２１,680,81.92,8.3,0.89,46.3,3,11,無,1,1,1,25.066744,121.526994,鐵鋁窗外推增建陽台外推；其他增建；
11409,華廈,台北市中山區德惠街２３號三樓,1600,40.98,39.05,4.87,46.9,3,10,無,3,2,2,25.06674,121.526337,親友、員工、共有人或其他特殊關係間之交易；
11409,華廈,台北市中山區松江路１９４巷２０號四樓,1170,36.76,31.83,8.22,49.1,4,6,無,3,2,2,25.057066,121.531737,親友、員工、共有人或其他特殊關係間之交易；其他增建；
11409,大樓,台北市中山區錦州街５０號八樓之１４,900,78.58,11.45,1.02,41.5,8,13,無,2,1,1,25.060325,121.524832,陽台外推；
11409,公寓,台北市中山區松江路１９４巷８號四樓,3000,65.73,45.64,13.43,42.2,4,5,無,3,2,2,25.057041,121.532446,親友、員工、共有人或其他特殊關係間之交易；
11409,大樓,台北市中山區民權東路一段６３號二樓,5540,65.32,84.81,8.11,45.8,2,12,無,3,0,1,25.062772,121.527232,陽台外推；其他增建；
11409,大樓,台北市中山區建國北路三段７１號六樓,2400,78.22,30.68,3.06,10.4,6,14,有,1,1,1,25.065311,121.537058,
11409,大樓,台北市中山區新生北路三段２１號四樓之３,1450,104.07,13.93,1.95,20.1,4,12,無,1,2,1,25.064159,121.528009,夾層；其他增建；
11409,公寓,台北市中山區合江街１０６號三樓,1750,70.05,24.98,8.17,55.4,3,4,無,3,1,1,25.059756,121.539304,
11408,大樓,台北市中山區林森北路４０９號八樓之３５,435,54.51,7.98,0.66,43.8,8,12,無,無隔間,0,0,25.059421,121.52569,陽台外推；其他增建；
11408,公寓,台北市中山區合江街１３０巷４號,400,92.15,4.34,1.75,58.5,1,4,無,2,2,1,25.059423,121.538889,親友、員工、共有人或其他特殊關係間之交易；
11408,華廈,台北市中山區中原街４６之１號六樓,1680,104.83,17.4,2.95,7.5,6,7,有,1,1,1,25.057611,121.528751,夾層；
11408,公寓,台北市中山區松江路２２６巷５號二樓,3700,81.78,45.24,10.38,44.8,2,5,無,3,2,2,25.058571,121.532154,親友、員工、共有人或其他特殊關係間之交易；
11408,大樓,台北市中山區松江路２７３號十一樓之９,1309,123.39,10.61,1.14,16.2,11,13,無,1,1,1,25.059893,121.533371,夾層；
11408,大樓,台北市中山區建國北路二段１４７號六樓之７,1498,61.79,24.25,2.73,43.7,6,14,無,無隔間,0,0,25.060524,121.53755,
11408,華廈,台北市中山區松江路５６２號五樓之２,780,75.4,10.35,2.09,29.7,5,6,無,1,1,1,25.070041,121.533885,
11408,大樓,台北市中山區民權東路一段４２號六樓之２,1162,104.58,11.11,1.28,18.4,6,12,無,1,1,1,25.062847,121.524589,親友、員工、共有人或其他特殊關係間之交易；
11408,大樓,台北市中山區錦州街５０號五樓,600,58.42,10.27,1,41.5,5,13,無,0,1,1,25.060325,121.524832,
11408,公寓,台北市中山區民權東路二段１５２巷５弄５號二樓,1975,65.59,30.11,12.18,54.4,2,4,無,3,2,2,25.061518,121.53451,陽台外推；
11408,大樓,台北市中山區建國北路三段７１號十樓之９,2900,94.33,31.65,3.16,10.4,10,14,有,3,2,1,25.065311,121.537058,夾層；
11408,華廈,台北市中山區農安街１２５巷３６號四樓之１,2180,91.29,23.88,5.18,7.8,4,7,有,1,1,1,25.06624,121.529754,一樓增建陽台外推；其他增建；
11408,華廈,台北市中山區雙城街１０巷２１號四樓,2700,73.29,36.84,6.01,43.2,4,7,無,3,2,2,25.064265,121.523767,陽台外推；
11408,大樓,台北市中山區松江路２３６號,41888,175.56,270.4,26.77,11.8,1,22,有,無隔間,0,0,25.05908,121.533448,含租約；
11408,公寓,台北市中山區合江街１４４巷１９號二樓,2100,70.98,29.59,10.36,54.5,2,4,無,2,2,2,25.059979,121.53817,陽台外推；其他增建；
11408,公寓,台北市中山區合江街１０８號,3450,153.68,22.45,8.09,55.4,1,4,無,0,2,1,25.058902,121.539077,其他增建；
11408,公寓,台北市中山區松江路４３１巷１２號五樓,1750,57.1,30.65,8.83,48.3,5,5,無,3,2,2,25.065469,121.534279,陽台外推；
11408,華廈,台北市中山區松江路２２１巷９號七樓,4538,74.47,60.94,12.17,46,7,7,有,4,2,2,25.058584,121.534507,陽台外推；頂樓加蓋；
11408,大樓,台北市中山區新生北路三段１０號四樓之６,1430,71.2,20.08,1.77,41,4,12,無,2,1,1,25.063664,121.528022,陽台外推；其他增建；
11408,華廈,台北市中山區吉林路１０５號七樓,2270,79.01,28.73,9.2,24.8,7,7,無,2,2,1,25.056306,121.530282,
11408,華廈,台北市中山區松江路１７０巷２０號五樓,5880,104.13,56.47,9.37,17.8,5,10,有,3,2,2,25.055902,121.532057,其他增建；
11408,華廈,台北市中山區新生北路三段６１號九樓之６,855,61.36,13.93,2.06,49.5,9,9,無,2,1,1,25.067007,121.528128,陽台外推；
11408,公寓,台北市中山區龍江路３４２巷３８號三樓,1850,62.21,29.74,8.29,47.8,3,5,無,3,2,1,25.065497,121.538895,
11408,華廈,台北市中山區新生北路三段６１號八樓之１８,1320,94.74,13.93,2.06,49.5,8,9,無,2,2,1,25.067007,121.528128,
11408,華廈,台北市中山區德惠街４５號六樓之１５,660,59.27,11.14,1.21,46.3,6,9,無,1,1,1,25.066727,121.526918,含土地增值稅或其他稅費32991元；
11408,大樓,台北市中山區農安街８號八樓之２,1355,87.03,15.57,0.96,16.8,8,14,無,1,1,1,25.065054,121.523705,
11408,大樓,台北市中山區林森北路５６１號六樓之４,900,72.71,12.38,1.16,47.9,6,12,無,1,1,1,25.064465,121.525723,其他增建；
11408,華廈,台北市中山區復興北路４３０巷２０號五樓,2950,81.29,36.29,6.79,46,5,7,無,3,2,2,25.063274,121.542958,陽台外推；其他增建；
11408,大樓,台北市中山區新生北路三段７號十二樓之１,3652,74.99,48.7,5.07,43.9,12,12,無,3,2,2,25.063386,121.527982,
11408,大樓,台北市中山區雙城街１９巷８號九樓之１５,1100,106.95,10.29,1.07,18,9,14,無,0,1,1,25.065467,121.524846,陽台外推；夾層；其他增建；
11408,大樓,台北市中山區建國北路三段７１號七樓之６,2450,88.52,31.19,3.11,10.4,7,14,有,2,1,2,25.065311,121.537058,夾層；其他增建；
11408,華廈,台北市中山區建國北路三段８９號二樓,2275,59.56,38.2,6.29,40.7,2,8,無,3,2,2,25.065649,121.536809,其他增建；
11408,大樓,台北市中山區農安街６號十樓之７,1360,86.73,15.68,0.96,16.8,10,14,無,2,1,1,25.065054,121.523705,其他增建；
11408,公寓,台北市中山區復興北路５１４巷４２號四樓,2380,63.55,37.45,10.04,41.7,4,5,無,3,2,2,25.065883,121.542229,其他增建；
11408,華廈,台北市中山區民權東路二段１９號五樓之７,1500,70.47,21.29,2.75,49.6,5,7,無,2,1,1,25.062817,121.528777,其他增建；
11408,大樓,台北市中山區新生北路三段７６號五樓之１,800,53.79,14.87,1.56,44.1,5,11,無,2,1,1,25.067007,121.528128,
11408,大樓,台北市中山區吉林路１５０號十一樓之７,3325,71.87,52.11,6.16,48.1,11,12,有,無隔間,0,0,25.058345,121.530356,
11408,大樓,台北市中山區五常街１１巷５號十三樓,4268,110.52,46.07,5.47,6.5,13,17,有,3,2,2,25.064936,121.537765,
11408,公寓,台北市中山區新生北路三段８４巷３８號二樓,1200,57.88,20.73,5.51,41.3,2,5,無,2,1,1,25.067361,121.526357,陽台外推；
11408,大樓,台北市中山區民權東路二段３８號七樓,5490,87.68,62.61,6.47,13.1,7,12,有,3,2,2,25.062396,121.529363,
11408,公寓,台北市中山區錦州街１６６號三樓,2000,75.72,26.41,8.39,56.8,3,4,無,4,2,2,25.06018,121.529752,陽台外推；其他增建；
11408,大樓,台北市中山區林森北路４５２號十一樓之５,1200,94.38,12.71,1.23,16.3,11,14,無,1,1,1,25.060563,121.525788,夾層；
11408,公寓,台北市中山區吉林路２９９巷１３號四樓,1736,70.27,24.71,5.45,40.9,4,5,無,2,2,1,25.063182,121.531044,陽台外推；
11408,公寓,台北市中山區新生北路三段８８巷４６號五樓,1150,54.89,20.95,5.87,48.6,5,5,無,4,2,2,25.067854,121.526186,陽台外推；其他增建；
11407,華廈,台北市中山區錦州街９５號四樓之１,720,69.66,10.34,1.94,48.1,4,7,無,無隔間,0,0,25.060474,121.528031,
11407,大樓,台北市中山區農安街２０號八樓之１４,2700,125.22,21.56,2.79,21.3,8,11,無,2,2,2,25.065054,121.523705,夾層；
11407,大樓,台北市中山區新生北路三段２６號六樓之１,650,76.77,8.47,1,44.7,6,12,無,1,0,1,25.063664,121.528022,親友、員工、共有人或其他特殊關係間之交易；
11407,大樓,台北市中山區林森北路４８３號五樓之５,1030,78.89,13.06,1.34,23.2,5,14,無,1,1,1,25.061237,121.525652,夾層；
11407,公寓,台北市中山區新生北路三段８８巷３０號三樓之１,490,72.41,6.77,1.75,32.8,3,5,無,2,1,1,25.067846,121.526582,
11407,大樓,台北市中山區林森北路４７９號五樓之４,952,76.76,12.4,1.3,23.2,5,14,無,1,1,1,25.061118,121.525723,陽台外推；
11407,公寓,台北市中山區吉林路２３６巷１１號四樓,800,66.99,11.94,4.27,59.8,4,4,無,3,1,1,25.059495,121.529664,親友、員工、共有人或其他特殊關係間之交易；
11407,華廈,台北市中山區林森北路４７２號九樓之１４,888,71.65,12.39,1.4,29.7,9,10,無,1,1,1,25.060563,121.525788,陽台外推；
11407,華廈,台北市中山區林森北路６５３號二樓,2000,68.1,29.37,2.74,18.4,2,9,有,2,2,1,25.067477,121.525927,陽台外推；
11407,華廈,台北市中山區合江街１００巷２５號三樓,2950,82.66,35.69,9.2,44.7,3,6,無,3,2,2,25.058391,121.538013,陽台外推；其他增建；
11407,公寓,台北市中山區民族東路４２６號,3760,80.71,46.59,11.13,43.4,"1,地下層",5,無,3,2,1,25.067821,121.539027,其他增建；
11407,大樓,台北市中山區農安街８號二樓之９,573.991,75.72,7.58,0.44,16.8,2,14,無,1,0,1,25.065054,121.523705,親友、員工、共有人或其他特殊關係間之交易；
11407,公寓,台北市中山區錦州街１９４號四樓,1830,65.15,28.09,11.19,53.7,4,4,無,4,2,2,25.060319,121.530724,
11407,大樓,台北市中山區林森北路５７５號四樓之１３,5500,70.08,78.48,8.41,49,4,11,無,4,2,3,25.065399,121.525742,
11407,大樓,台北市中山區林森北路４０９號十一樓之２６,350,49.28,7.1,0.66,43.8,11,12,無,1,1,1,25.059421,121.52569,其他增建；
11407,大樓,台北市中山區松江路２８９之５０６號,3150,77.49,40.65,5.19,55.9,5,11,無,3,2,2,25.060536,121.533386,
11407,大樓,台北市中山區林森北路５３６號十三樓之５,1768,113.72,25.98,1.42,20.6,13,14,有,2,1,1,25.064465,121.525723,夾層；
11407,公寓,台北市中山區松江路４３１巷９號四樓,1666,60.56,27.51,7.99,48.3,4,5,無,5,0,5,25.065665,121.534174,陽台外推；其他增建；
11407,大樓,台北市中山區雙城街１９巷８號三樓之１４,1330,91.26,14.57,1.49,18,3,14,無,2,1,1,25.065467,121.524846,夾層；其他增建；
11407,華廈,台北市中山區新生北路三段５６巷１８號,3600,99.71,36.1,5.51,41.5,1,7,無,0,2,1,25.065239,121.526537,其他增建；
11407,華廈,台北市中山區吉林路１０３號六樓之１,2280,92.09,24.76,4.35,43.3,6,7,無,2,2,1,25.056277,121.530281,陽台外推；
11407,大樓,台北市中山區雙城街１９巷８號七樓之１８,1100,106.95,10.29,1.07,18,7,14,無,1,1,1,25.065467,121.524846,陽台外推；夾層；其他增建；
11407,公寓,台北市中山區新生北路二段１３７巷２３號二樓,2188,74.28,29.46,8.95,37.2,2,5,無,3,2,2,25.061309,121.528609,陽台外推；其他增建；
11407,華廈,台北市中山區民族東路１６６之１號四樓,6198,58.53,105.89,17.34,11.8,"4,5",6,有,3,2,2,25.068072,121.529721,其他增建；
11407,公寓,台北市中山區合江街１４４巷１９號四樓,2030,68.53,29.62,10.36,54.5,4,4,無,3,2,2,25.059979,121.53817,其他增建；
11407,公寓,台北市中山區雙城街１７之１號三樓,2430,80.17,30.31,11.7,0,3,3,無,8,2,3,25.064549,121.524407,內梯、懸空增建做室內使用、鐵窗增建頂樓加蓋；其他增建；
11407,華廈,台北市中山區新生北路三段８２巷２號七樓,1300,80.9,16.07,1.86,32.4,7,10,無,2,2,1,25.067019,121.527321,其他增建；
11407,公寓,台北市中山區民生東路二段１６４巷６號二樓,1520,82.66,18.39,4.92,0,2,4,無,2,2,1,25.056749,121.533601,其他增建；
11407,公寓,台北市中山區新生北路三段９３巷３１號,2112,90.9,23.24,17.7,56.9,1,3,無,3,2,1,25.067862,121.528895,其他增建；
11407,大樓,台北市中山區德惠街３４號九樓之５,560,67.47,8.3,0.89,46.3,9,11,無,1,0,1,25.066744,121.526994,其他增建；
11407,華廈,台北市中山區林森北路６２７號九樓之７,1550,85.61,18.1,2.35,34.5,9,9,無,2,1,1,25.067032,121.525852,陽台外推；
11407,大樓,台北市中山區民權東路一段６３號十一樓之５,988,88.3,11.19,1.08,45.8,11,12,無,1,1,1,25.062772,121.527232,
11407,大樓,台北市中山區建國北路三段８０巷１號三樓,3150,76.61,41.12,5.76,38.2,3,11,無,3,2,2,25.065294,121.538058,其他增建；
11407,華廈,台北市中山區中山北路二段１３７巷１號三樓之９,475,63.37,7.5,0.55,47.9,3,6,無,1,1,1,25.061779,121.524311,
11407,大樓,台北市中山區民權東路三段１２號三樓之１,4000,75.23,53.17,7.59,29.3,3,15,有,2,2,2,25.062132,121.539726,車位無固定位置親友、員工、共有人或其他特殊關係間之交易；
11407,華廈,台北市中山區林森北路５５７巷３號四樓,1766,74.42,31.25,3.86,15.7,4,9,有,1,1,1,25.06562,121.525514,陽台外推；
11407,大樓,台北市中山區建國北路三段５５號三樓之２,2700,75.9,35.57,7.91,27.5,3,12,無,3,2,2,25.064802,121.537596,其他增建：陽台加窗。其他增建；
11407,公寓,台北市中山區龍江路４５７巷５號三樓,1400,69.89,20.03,7.18,49.3,3,4,無,3,2,1,25.067687,121.541356,陽台外推；其他增建；
11407,大樓,台北市中山區民生東路三段９巷５號十三樓,3250,75.43,43.09,5.03,41.3,13,14,無,4,2,2,25.058921,121.537697,
11407,大樓,台北市中山區林森北路４０９號九樓,1125,51.5,21.85,1.92,43.8,9,12,無,2,1,1,25.059421,121.52569,鐵鋁窗其他增建；
11407,大樓,台北市中山區民權東路二段３６號六樓,5500,100.77,75.64,6.51,13.1,6,12,有,3,2,2,25.062397,121.529315,車位位於地下第五層。其他增建；
11407,大樓,台北市中山區錦州街５０號十二樓之２３,470,50.1,9.38,0.86,41.5,12,13,無,無隔間,0,0,25.060325,121.524832,
11406,公寓,台北市中山區新生北路二段１３３巷２５號五樓,1730,72.25,23.95,6.05,43.3,5,5,無,2,2,1,25.060909,121.528572,陽台外推；
11406,大樓,台北市中山區林森北路４１３號十一樓之７,960,48.06,19.97,1.9,41.5,11,13,無,2,1,1,25.059421,121.52569,陽台外推；
11406,公寓,台北市中山區龍江路３２８巷２８號四樓,1860,53.66,34.66,10.08,48.3,4,5,無,4,2,2,25.065106,121.539066,親友、員工、共有人或其他特殊關係間之交易；
11406,大樓,台北市中山區雙城街１９巷８號十二樓之９,985,95.69,10.29,1.07,18,12,14,無,1,1,1,25.065467,121.524846,夾層；
11406,公寓,台北市中山區農安街２０４巷８號,3000,88.98,33.71,9.11,42.3,1,5,無,1,3,1,25.063905,121.536145,其他增建；
11406,大樓,台北市中山區雙城街１９巷８號五樓之１９,860,70.94,18.1,1.11,18,5,14,有,1,1,1,25.065467,121.524846,
11406,大樓,台北市中山區雙城街１９巷８號七樓之１２,1078,104.97,10.27,1.07,18,7,14,無,1,1,1,25.065467,121.524846,陽台外推；夾層；
11406,華廈,台北市中山區五常街１０１號五樓,3969,80.65,49.21,10.18,4.2,5,7,有,2,1,2,25.06444,121.541559,親友、員工、共有人或其他特殊關係間之交易；
11406,大樓,台北市中山區建國北路二段１７８號七樓,9100,112.35,95.14,10.26,16.4,7,15,有,2,2,2,25.059273,121.536486,陽台外推；其他增建；
11406,大樓,台北市中山區錦州街５０號八樓之１４,625,54.57,11.45,1.02,41.5,8,13,無,1,1,1,25.060325,121.524832,鐵鋁窗外推
11406,大樓,台北市中山區新生北路二段１０８號十三樓之９,311,35.49,8.76,0.68,47.2,13,14,無,1,0,1,25.060068,121.527258,
11406,公寓,台北市中山區吉林路４０７巷１２號四樓,1700,67.33,25.25,9.15,53.5,4,4,無,4,3,2,25.065994,121.531041,陽台外推；頂樓加蓋；
11406,公寓,台北市中山區民族東路５１２巷６號三樓,970,49.12,19.75,7.03,49.3,3,4,無,2,2,1,25.067693,121.54198,
11406,公寓,台北市中山區民族東路５１２巷４號二樓,1040,50.89,20.44,7.56,49.3,2,4,無,2,2,1,25.067688,121.542064,
11406,華廈,台北市中山區林森北路４３２號四樓,1075,70.93,15.16,1.57,29.8,4,10,無,0,1,1,25.060525,121.52561,
11406,大樓,台北市中山區民權東路三段１６號四樓之１,4853,81.14,59.81,8.9,29.3,4,15,有,4,2,2,25.06213,121.540084,前陽台、主臥側陽台外推並都加窗陽台外推；
11406,公寓,台北市中山區新生北路三段８８巷２５號四樓,1460,61.7,23.66,5.87,46.4,4,5,無,2,2,1,25.067967,121.526818,陽台外推；其他增建；
11406,大樓,台北市中山區林森北路４１６巷１號八樓之１,960,78.07,12.3,1.19,49.5,8,11,無,2,2,1,25.059748,121.525599,陽台外推；
11406,大樓,台北市中山區林森北路４１６巷１號八樓,1500,72.38,20.72,2.01,49.5,8,11,無,3,2,1,25.059748,121.525599,陽台外推；
11406,公寓,台北市中山區龍江路３５６巷１８號三樓,2080,65.45,31.78,10.59,50.2,3,4,無,3,2,2,25.06591,121.540127,陽台外推；
11406,華廈,台北市中山區松江路３３０巷５３號九樓之３,2250,88.44,25.44,3.82,18.3,9,9,無,4,1,2,25.061289,121.531401,
11406,大樓,台北市中山區農安街１５號,1000,77.69,12.87,1.16,24.6,"1,夾層",11,有,無隔間,0,0,25.065046,121.523697,親友、員工、共有人或其他特殊關係間之交易；
11406,華廈,台北市中山區吉林路３７９巷１９號二樓,1133,68.46,16.55,3,43.9,2,7,無,3,2,2,25.06534,121.531358,親友、員工、共有人或其他特殊關係間之交易；
11406,公寓,台北市中山區雙城街４９巷９之１號二樓,1580,66.75,23.67,6.88,0,2,4,無,3,2,2,25.068053,121.524874,其他增建；
11406,大樓,台北市中山區林森北路４０９號六樓之２,1070,61.35,17.44,1.46,43.8,6,12,無,2,1,1,25.059421,121.52569,陽台外推；
11406,大樓,台北市中山區林森北路５７５號六樓之１３,1150,83.77,13.73,1.49,49,6,11,無,1,1,1,25.065399,121.525742,
11406,大樓,台北市中山區建國北路二段１４３號十二樓,3660,75.06,48.76,5.7,39.4,12,15,無,2,2,3,25.060524,121.53755,陽台外推；其他增建；
11406,公寓,台北市中山區民族東路５１２巷４號,1450,70.95,20.44,7.56,49.3,1,4,無,有隔間,0,0,25.067688,121.542064,
11406,大樓,台北市中山區農安街８號八樓之７,1528,86.79,19.89,1.17,16.8,8,14,有,0,1,1,25.065054,121.523705,
11406,大樓,台北市中山區雙城街２３號六樓之１,1435,113.43,12.65,1.2,1.7,6,15,無,1,1,1,25.065941,121.524597,
11406,華廈,台北市中山區錦州街９５號五樓之２,760,67.1,11.33,2.33,48.1,5,7,無,1,1,1,25.060474,121.528031,陽台外推；其他增建；
11406,華廈,台北市中山區錦州街９５號五樓之３,640,66.74,9.59,1.53,48.1,5,7,無,1,1,1,25.060474,121.528031,陽台外推；其他增建；
11406,大樓,台北市中山區新生北路三段１號十三樓之１５,835,77.21,10.81,1.11,45.2,13,14,無,1,1,1,25.063664,121.528022,
11406,公寓,台北市中山區吉林路４６６號四樓,1800,72.93,24.68,7.41,52.8,4,4,無,4,3,2,25.067411,121.530315,頂樓加蓋；其他增建；
11406,公寓,台北市中山區松江路１９４巷４８號二樓,1308,74.94,17.45,6.66,57,2,4,無,3,2,1,25.057035,121.530962,其他增建；
11406,大樓,台北市中山區德惠街５２號六樓之９,732.24,80.96,9.04,0.86,44.1,6,11,無,無隔間,0,0,25.066567,121.527194,
11406,華廈,台北市中山區雙城街４３巷１號五樓之７,800,43.63,18.33,4.53,50.5,4,4,無,2,1,1,25.067567,121.524963,親友、員工、共有人或其他特殊關係間之交易；
11406,大樓,台北市中山區松江路３３８號十樓,6800,86.08,79,10.38,23.3,10,14,有,5,2,4,25.061346,121.532968,陽台外推；
11406,公寓,台北市中山區合江街１２３號四樓,1588,78.91,20.13,8.55,53,4,4,無,2,2,1,25.060598,121.539362,頂樓加蓋；其他增建；
11406,大樓,台北市中山區錦州街４６號九樓之６,2580,48.99,52.66,5.28,41.5,9,13,無,無隔間,0,0,25.060171,121.525777,
11406,公寓,台北市中山區民族東路５１２巷４號三樓,1025,50.15,20.44,7.56,49.3,3,4,無,2,2,1,25.067688,121.542064,
11406,公寓,台北市中山區民族東路５１２巷４號四樓,1055,51.62,20.44,7.56,49.3,4,4,無,2,2,1,25.067688,121.542064,頂樓加蓋；
11406,大樓,台北市中山區林森北路５３６號十三樓之８,1750,113.61,15.4,1.42,20.6,13,14,無,2,1,1,25.064465,121.525723,陽台外推；夾層；其他增建；
11406,大樓,台北市中山區雙城街１３巷９號十四樓之３,6100,102.91,68.35,5,14,14,15,有,3,2,2,25.064175,121.524782,陽台外推；其他增建；
11406,華廈,台北市中山區農安街２４之３號七樓,1080,89.1,12.12,1.56,36.7,7,9,無,1,1,1,25.064836,121.525278,
11406,公寓,台北市中山區中原街６２號一樓,2673,100.93,26.48,10.89,59.8,1,3,無,1,1,1,25.058716,121.528825,其他增建；
11406,大樓,台北市中山區松江路３１８號九樓之５,8388,91.26,91.91,8.74,16.8,9,14,有,無隔間,0,0,25.060669,121.532881,
11406,公寓,台北市中山區民生東路二段１１５巷２６之１號,2400,168.77,14.22,4.93,53.8,1,4,無,0,2,2,25.059429,121.531603,買方共有人數2人民生東路二段115巷26號價格為伍佰肆拾萬元整民生東路二段115巷26之1號價格為壹仟捌佰陸拾萬元整其他增建；
11406,大樓,台北市中山區新生北路三段５８號四樓之８,1588,81.29,19.54,1.48,43.3,4,12,無,2,1,1,25.065499,121.528083,
11406,華廈,台北市中山區林森北路５５７巷５號,1950,100,27.48,3.14,15.7,1,9,有,1,2,1,25.064542,121.526395,陽台外推；夾層；其他增建；
11405,公寓,台北市中山區民族東路４１０巷２弄６號五樓,1900,63.03,30.14,6.66,47.5,5,5,無,3,2,2,25.066748,121.537897,頂樓加蓋；
11405,華廈,台北市中山區合江街１８２號二樓,3480,81.82,42.53,7.88,48.3,2,7,無,3,2,2,25.061269,121.538542,陽台外推；
11405,大樓,台北市中山區民權東路一段６３號十樓,820,66.59,12.31,1.28,45.8,10,12,無,無隔間,0,0,25.062772,121.527232,
11405,大樓,台北市中山區民權東路一段４２號八樓之１,1300,109.74,11.85,1.35,18.4,8,12,無,1,1,1,25.062847,121.524589,夾層；
11405,華廈,台北市中山區中山北路二段１３７巷２４之１號四樓,2200,63.29,34.76,5.27,46.3,4,7,無,3,2,2,25.061351,121.524584,天井增建、雨遮增建陽台外推；其他增建；
11405,華廈,台北市中山區吉林路１２１號三樓,3388,61.18,55.38,10.67,40.8,3,7,無,3,2,2,25.056956,121.530303,
11405,大樓,台北市中山區農安街２０號五樓之７,1338,117.92,11.35,1.31,21.3,5,11,無,1,1,1,25.065054,121.523705,陽台外推；夾層；
11405,華廈,台北市中山區中山北路二段１３７巷１號六樓,628,68.65,9.15,1.33,47.9,6,6,無,1,1,1,25.061779,121.524311,
11405,華廈,台北市中山區農安街１２７號六樓,2538,79.98,31.73,4.56,37.8,6,7,無,4,2,2,25.065028,121.530074,買方負擔土地增值稅等總計416148親友、員工、共有人或其他特殊關係間之交易；
11405,大樓,台北市中山區新生北路三段１６號八樓,1160,90.48,12.82,1.33,13.4,8,11,無,1,1,1,25.063664,121.528022,
11405,大樓,台北市中山區民權東路一段５７號十樓,3000,84.25,35.61,2.31,6.2,10,12,有,2,2,1,25.062847,121.524589,其他增建；
11405,公寓,台北市中山區吉林路３８３號四樓,1588,69.74,22.77,7.26,51.7,4,4,無,3,2,2,25.065382,121.530489,
11405,大樓,台北市中山區農安街６號三樓之９,1380,80.56,17.13,1,16.8,3,14,無,1,1,1,25.065054,121.523705,
11405,華廈,台北市中山區中山北路二段１１５巷４３號五樓之８,1995,67.07,29.74,5.78,34.1,5,8,有,0,2,0,25.060968,121.524667,
11405,大樓,台北市中山區農安街１０之１號二樓之１,1968,95.84,20.98,1.83,18.3,2,13,有,2,2,1,25.065054,121.523705,夾層；其他增建；
11405,華廈,台北市中山區松江路２２１巷２３號四樓,3600,82.98,47.33,8.45,41.4,4,7,有,3,2,2,25.058436,121.535446,陽台外推；其他增建；
11405,大樓,台北市中山區民權東路二段３號二樓,2600,44.85,57.97,4.79,42,2,12,無,3,3,1,25.063066,121.528371,陽台外推；
11405,公寓,台北市中山區錦州街４１４號三樓,330,60.47,5.46,2.33,49.8,3,4,無,3,2,2,25.060038,121.541848,
11405,公寓,台北市中山區新生北路三段８８巷４１號,600,83.94,7.15,1.8,46.3,1,5,無,5,2,2,25.067972,121.526189,親友、員工、共有人或其他特殊關係間之交易；
11405,大樓,台北市中山區建國北路三段７１號十四樓之５,2770,100.35,32.6,3.25,10.4,14,14,有,2,1,2,25.065311,121.537058,
11405,華廈,台北市中山區中山北路二段１３７巷１號五樓之２９,810,83.76,9.67,1.47,47.9,5,6,無,1,1,1,25.061779,121.524311,
11405,公寓,台北市中山區民族東路５１２巷１１號,1560,72.37,21.56,8.09,49.2,1,3,無,1,1,1,25.067471,121.542108,其他增建；
11405,大樓,台北市中山區民生東路一段７２號十二樓之１,1095,70.77,15.47,1.13,44.9,12,12,無,無隔間,0,0,25.058184,121.526803,輕隔間為2房1廳1衛
11405,華廈,台北市中山區德惠街２５號六樓,2728,66.63,40.94,4.68,46.9,6,10,無,3,2,2,25.066738,121.526424,其他增建；
11405,大樓,台北市中山區新生北路三段４３號二樓之５,1480,94.58,15.65,1.99,48,2,11,無,3,2,1,25.065499,121.528083,陽台外推；其他增建；
11405,大樓,台北市中山區德惠街５２號五樓之２,820,58.07,14.12,1.49,44.1,5,11,無,1,1,1,25.066567,121.527194,親友、員工、共有人或其他特殊關係間之交易；
11405,公寓,台北市中山區吉林路４５６巷３４號四樓,2168,72.66,29.84,10.51,53.7,4,4,無,3,1,1,25.066944,121.528721,頂樓加蓋；其他增建；
11405,大樓,台北市中山區林森北路４５８號五樓之１,2138,82.17,26.02,2.52,16.3,5,14,無,2,1,1,25.060563,121.525788,夾層；其他增建；
11405,華廈,台北市中山區龍江路２６４號一樓,7600,109.61,69.34,13.01,43.4,1,7,無,無隔間,0,0,25.060102,121.540634,其他增建；
11405,華廈,台北市中山區龍江路２６４號二樓,2600,70.53,36.86,6.5,43.4,2,7,無,無隔間,0,0,25.060102,121.540634,
11405,華廈,台北市中山區龍江路２６４號三樓,2600,70.53,36.86,6.5,43.4,3,7,無,無隔間,0,0,25.060102,121.540634,
11405,華廈,台北市中山區龍江路２６４號四樓,2600,70.53,36.86,6.5,43.4,4,7,無,無隔間,0,0,25.060102,121.540634,
11405,公寓,台北市中山區龍江路４１５巷１１號四樓,1910,67.53,28.28,7.7,42.6,4,5,無,3,2,2,25.066565,121.541837,陽台外推；
11405,大樓,台北市中山區德惠街３４之２號,6500,108.99,59.64,6.39,46.3,1,11,無,0,1,1,25.066744,121.526994,其他增建；
11405,華廈,台北市中山區林森北路６５５號八樓之２,865,82.64,10.47,1.24,21.9,8,10,無,無隔間,0,0,25.067477,121.525927,
11405,華廈,台北市中山區龍江路３５６巷５１號五樓,3150,75.86,41.52,7.7,42.6,5,7,無,3,2,2,25.066122,121.538838,鐵窗增建陽台外推；其他增建；
11405,大樓,台北市中山區民生東路二段１號五樓之１,6500,97.45,80.06,8.58,12.3,5,14,有,3,2,2,25.058156,121.528347,親友、員工、共有人或其他特殊關係間之交易；
11405,大樓,台北市中山區建國北路三段７１號十二樓之８,2700,93.5,29.46,2.94,10.4,12,14,有,2,2,1,25.065311,121.537058,夾層；其他增建；
11405,大樓,台北市中山區民生東路一段７２號十一樓之４,980,65.66,14.93,1.17,44.9,11,12,無,2,1,1,25.058184,121.526803,陽台外推；
11405,華廈,台北市中山區新生北路二段１３３巷１８號六樓之１１,700,78.47,8.92,1.87,46.2,6,6,無,1,1,1,25.060775,121.528499,其他增建；
11405,華廈,台北市中山區新生北路三段３４號九樓之２,810,74.48,10.87,1.23,31.5,9,10,無,1,1,1,25.065499,121.528083,陽台外推；其他增建；
11405,華廈,台北市中山區農安街７７巷１弄８號,2120,104.99,20.19,3.69,44.8,1,7,無,1,1,1,25.065195,121.528716,其他增建；
11405,大樓,台北市中山區雙城街１９巷８號六樓之８,1036,100.73,10.29,1.07,18,6,14,無,1,1,1,25.065467,121.524846,陽台外推；夾層；其他增建；
11405,華廈,台北市中山區林森北路５５７巷３號三樓,1615,51.67,31.25,3.86,15.7,3,9,有,2,1,1,25.06562,121.525514,親友、員工、共有人或其他特殊關係間之交易；
11405,華廈,台北市中山區民生東路二段８３號五樓之２９,1215,79.9,15.21,2.84,46,5,7,無,1,1,1,25.058128,121.530465,廚房其他增建；
11405,大樓,台北市中山區林森北路４０９號九樓之２３,500,54.07,9.25,1.06,43.8,9,12,無,1,1,1,25.059421,121.52569,其他增建；
11405,華廈,台北市中山區中山北路二段１１５巷３０號二樓,1751,81.77,21.41,3.71,15.3,2,7,無,1,1,1,25.06082,121.52498,
11405,華廈,台北市中山區新生北路三段６１號三樓之１５,2180,68.34,31.9,4.12,49.5,3,9,無,3,2,2,25.067007,121.528128,陽台外推；其他增建；
11405,華廈,台北市中山區吉林路２１８巷１４號二樓,1000,43.52,22.98,4.07,42.4,2,7,無,4,1,2,25.058865,121.529545,親友、員工、共有人或其他特殊關係間之交易；
11405,公寓,台北市中山區民權東路二段１３５巷３０弄８號三樓,1666,71.84,23.19,6.5,47.6,3,5,無,3,2,2,25.064141,121.534674,陽台外推；其他增建；
11405,公寓,台北市中山區民生東路二段１４７巷５弄２５號,260,46.66,5.57,1.77,50.8,1,4,無,3,1,2,25.059244,121.535859,親友、員工、共有人或其他特殊關係間之交易；
11405,大樓,台北市中山區民生東路二段９３巷１９號五樓,4700,120.47,47.43,6.26,4.3,5,13,有,3,2,2,25.058565,121.530934,
11405,華廈,台北市中山區林森北路６３１號七樓,3688,61.29,60.18,8.22,38.8,7,10,無,5,2,2,25.067477,121.525927,親友、員工、共有人或其他特殊關係間之交易；
11404,公寓,台北市中山區吉林路１９９巷２２號三樓,2058,73.93,27.84,10.29,53.8,3,4,無,3,2,2,25.05976,121.53135,陽台外推；
11404,華廈,台北市中山區長春路１３７巷１０號五樓,787,27.5,28.62,4.64,53.3,5,7,無,5,2,4,25.055914,121.531423,親友、員工、共有人或其他特殊關係間之交易；
11404,華廈,台北市中山區新生北路三段６２巷２０號九樓之１,1080,51.88,20.82,2.8,35.6,"9,10",10,有,4,2,3,25.065737,121.526833,本建物有獨立權狀車位，移轉持分為3/10個車位面積親友、員工、共有人或其他特殊關係間之交易；
11404,大樓,台北市中山區新生北路三段１號三樓之２３,700,76.52,9.15,0.93,45.2,3,14,無,1,0,1,25.063664,121.528022,
11404,大樓,台北市中山區新生北路三段４２號十樓之１,1035,85.54,12.1,1.35,24.8,10,11,無,1,0,1,25.064169,121.527383,親友、員工、共有人或其他特殊關係間之交易；
11404,華廈,台北市中山區新生北路三段７０號十樓之２,750,68.57,10.94,1.35,45.6,10,10,無,1,1,1,25.066258,121.527396,陽台外推；
11404,華廈,台北市中山區吉林路４４１號,533,25.1,21.24,0,39.3,1,7,無,無隔間,0,0,25.067237,121.530698,建物坐落地號：德惠段二小段203地號；其他增建；
11404,華廈,台北市中山區吉林路４４３號,665,31.16,21.34,0,39.3,1,7,無,無隔間,0,0,25.067222,121.530561,建物坐落地號：德惠段二小段203地號；其他增建；
11404,華廈,台北市中山區吉林路４４７巷４號,1513,25.18,60.09,0,39.3,1,7,無,無隔間,0,0,25.067244,121.530703,建物坐落地號：德惠段二小段203地號；其他增建；
11404,公寓,台北市中山區松江路３３０巷５４號二樓,1556,73.02,21.31,9.48,59.3,2,3,無,3,2,1,25.061133,121.531158,其他增建；
11404,華廈,台北市中山區新生北路三段６１號二樓之８,900,64.59,13.93,2.06,49.5,2,9,無,無隔間,0,0,25.067007,121.528128,
11404,大樓,台北市中山區松江路２０６號七樓之４,2470,85.34,28.94,1.93,48.3,7,14,無,無隔間,0,0,25.057534,121.532901,公設2619建號價金20000元正
11404,大樓,台北市中山區中山北路二段１１５巷２４號七樓,2250,85.65,26.27,3.18,35.4,7,17,無,2,2,1,25.060761,121.524583,
11404,大樓,台北市中山區新生北路三段２１號十樓,1485,110.91,13.39,1.88,20.1,10,12,無,2,1,1,25.064159,121.528009,夾層；其他增建；
11404,華廈,台北市中山區林森北路４８５巷１８號五樓之１,2010,84.61,23.76,3.36,47.8,5,7,無,3,2,1,25.065619,121.525538,陽台外推；
11404,華廈,台北市中山區吉林路４４７巷２、４、６、６之１號房屋,1689,25.1,67.29,0,39.3,地下層,7,無,無隔間,0,0,25.06724,121.530793,建物坐落地號：德惠段二小段203地號；
11404,大樓,台北市中山區建國北路二段９０號地下,2410,39.58,60.89,7.28,41.3,地下層,12,無,0,1,4,25.056592,121.53652,其他增建；含租約；
11404,公寓,台北市中山區林森北路４８２號四樓,1530,66.33,23.07,5.14,52.8,4,5,無,3,1,2,25.061316,121.52544,親友、員工、共有人或其他特殊關係間之交易；
11404,公寓,台北市中山區吉林路２１８巷２０號,2100,90.49,23.21,9.38,59.8,1,3,無,2,2,1,25.058863,121.529421,其他增建；
11404,華廈,台北市中山區合江街６１巷１號六樓,3568,83.97,52.93,13.05,31.2,6,7,有,3,2,2,25.057375,121.539398,其他增建；
11404,大樓,台北市中山區民權東路二段７１巷８號十一樓之８,2330,120.5,19.34,2.39,3.1,11,15,無,2,1,1,25.063332,121.531604,
11404,公寓,台北市中山區龍江路３７０巷５０號四樓,1530,54.6,28.02,7.47,46.8,4,5,無,3,2,1,25.066318,121.537752,
11404,公寓,台北市中山區松江路１７０巷４２號四樓,2600,68.27,38.08,14.22,0,4,4,無,3,2,2,25.055958,121.530829,親友、員工、共有人或其他特殊關係間之交易；頂樓加蓋；
11404,大樓,台北市中山區新生北路三段５８號四樓之４,675,69.06,9.77,0.96,43.3,4,12,無,1,1,1,25.065499,121.528083,陽台外推；
11404,華廈,台北市中山區農安街１９４號三樓,2525,72.61,34.78,7.26,41.8,3,7,無,3,2,2,25.064541,121.535619,陽台外推；其他增建；
11404,華廈,台北市中山區合江街１００巷２５號五樓,2720,76.39,35.61,9.08,44.7,5,6,無,無隔間,0,0,25.058391,121.538013,陽台外推；
11404,大樓,台北市中山區雙城街２３號三樓之７,2615,88.36,29.59,2.24,1.7,3,15,有,2,1,1,25.065941,121.524597,
11404,華廈,台北市中山區林森北路６５７號九樓之３,950,51.24,18.54,1.4,21.9,9,10,有,1,1,1,25.067477,121.525927,
11404,大樓,台北市中山區德惠街３４號七樓之１０,536,81.21,6.6,0.89,46.3,7,11,無,無隔間,0,0,25.066744,121.526994,陽台外推；
11404,華廈,台北市中山區錦州街２７８號,2857.4,200,14.29,2.56,39.5,1,7,無,無隔間,0,0,25.06024,121.535056,
11404,華廈,台北市中山區德惠街７３號五樓,2618,76.4,57.73,4.62,24.5,5,10,有,2,2,1,25.06671,121.528352,
11404,大樓,台北市中山區龍江路３３１巷５號七樓,1500,71.41,21.01,2.48,41,7,12,無,3,2,2,25.063155,121.541207,親友、員工、共有人或其他特殊關係間之交易；
11404,公寓,台北市中山區龍江路４１２巷４５號三樓,1806,62.67,28.82,7.08,43.4,3,5,無,3,2,2,25.067713,121.539032,其他增建；
11404,華廈,台北市中山區松江路５６２號五樓之１３,738,68.2,10.82,1.85,29.7,5,6,無,0,0,1,25.070041,121.533885,
11404,大樓,台北市中山區松江路４２６號七樓之３,5100,97.32,61.27,6.69,19.3,7,15,有,2,2,2,25.065997,121.533536,
11404,公寓,台北市中山區民族東路４１０巷２３弄１０號三樓,1800,59.95,30.03,7.84,40.1,3,5,無,3,2,2,25.066758,121.538955,其他增建；
11404,華廈,台北市中山區新生北路二段１２１號二樓之１,1840,83.64,22,4.13,46,2,7,無,2,2,1,25.059104,121.527977,陽台外推；其他增建；
11404,公寓,台北市中山區松江路２０４巷１１號,1700,85.21,19.95,14.22,0,2,2,無,3,2,1,25.057504,121.532416,其他增建；
11404,大樓,台北市中山區建國北路三段６６號三樓,1980,71.89,27.54,4.12,39.9,3,12,無,3,2,1,25.065403,121.536047,陽台外推；
11404,大樓,台北市中山區農安街８號四樓之６,1308,81.22,16.11,0.96,16.8,4,14,無,0,1,1,25.065054,121.523705,其他增建；
11404,大樓,台北市中山區新生北路三段４６號八樓之７,970,75.77,12.8,1.25,44.8,8,12,無,1,1,1,25.065499,121.528083,陽台外推；其他增建；
11404,大樓,台北市中山區民生東路二段３號三樓之３,5219,99.91,63.76,6.39,12.3,3,14,有,3,2,2,25.058156,121.528347,
11404,大樓,台北市中山區錦州街１５９號十樓之７,2630,56.56,46.5,4.43,45.9,10,12,無,3,2,3,25.060321,121.530282,
11404,公寓,台北市中山區民族東路４２４號,3760,80.71,46.59,11.13,43.4,"1,地下層",5,無,3,3,2,25.067937,121.538907,其他增建；
11404,公寓,台北市中山區民權東路二段９２巷８弄４號二樓,2188,70.75,30.93,12.63,55.7,2,4,無,3,2,2,25.060662,121.531522,其他增建；
11404,華廈,台北市中山區松江路１６４巷１５號二樓,4200,72.51,57.92,11.46,42.8,2,6,無,4,2,3,25.055697,121.532114,陽台外推；
11404,大樓,台北市中山區新生北路三段２４號,1900,69.99,27.15,3.32,44.7,1,12,無,1,1,1,25.063664,121.528022,其他增建；
11404,華廈,台北市中山區雙城街４３巷７號五樓之９,480,72.36,6.63,0.94,46.9,5,7,無,1,1,1,25.067567,121.524963,其他增建項目：陽台增建陽台外推；
11404,華廈,台北市中山區松江路２２６巷１５號五樓,3350,72.8,46.01,10.74,45.7,5,6,無,4,2,2,25.058611,121.53193,陽台外推；
11404,大樓,台北市中山區農安街１９號五樓之４,1760,99.47,17.69,1.93,22.8,5,14,無,1,2,1,25.065054,121.523705,陽台外推；
11404,公寓,台北市中山區松江路２０４巷４６號,273.7,86.5,3.16,1.25,0,1,3,無,2,1,1,25.057367,121.53136,
11404,華廈,台北市中山區林森北路５９０之３０號,2250,63.19,35.6,4.68,59,9,10,無,3,2,2,25.06548,121.525328,
11404,華廈,台北市中山區民生東路二段８３號二樓之１,2600,70.48,36.89,7.33,46,2,7,無,3,2,2,25.058128,121.530465,其他增建；
11404,大樓,台北市中山區林森北路４０９號七樓之２４,560,60.56,9.25,0.86,43.8,7,12,無,1,0,1,25.059421,121.52569,
11403,大樓,台北市中山區林森北路４０９號六樓之２,1270,72.81,17.44,1.46,43.8,6,12,無,2,1,1,25.059421,121.52569,陽台外推；
11403,大樓,台北市中山區農安街８號八樓之６,1370,88.01,15.57,0.96,16.8,8,14,無,1,0,1,25.065054,121.523705,
11403,華廈,台北市中山區新生北路三段６４號二樓之７,319.068,17.5,18.23,1.92,46.3,2,10,無,2,2,2,25.065848,121.527386,親友、員工、共有人或其他特殊關係間之交易；包含公共設施保留地用地；
11403,公寓,台北市中山區龍江路３７０巷２４號五樓,2250,66.61,33.78,8.29,47.9,5,5,無,5,0,5,25.06636,121.539936,陽台外推；
11403,大樓,台北市中山區雙城街３巷２號十樓之９,1610,85.84,18.76,2.82,30.3,10,15,無,1,1,1,25.063304,121.525681,
11403,華廈,台北市中山區德惠街８７號七樓,2380,84.5,28.17,5.14,41.8,7,7,無,3,2,1,25.066748,121.528744,頂樓加蓋；
11403,公寓,台北市中山區吉林路４６１巷２號二樓,1600,52.77,30.32,14.6,54.3,2,4,無,3,2,1,25.067635,121.530856,親友、員工、共有人或其他特殊關係間之交易；
11403,大樓,台北市中山區德惠街１０號五樓之３,828,92.72,8.93,0.86,22.1,5,12,無,1,1,1,25.066775,121.525996,
11403,華廈,台北市中山區林森北路４１６巷３號三樓之６,860,87.23,9.86,2.53,51.3,3,4,無,1,1,1,25.059748,121.525599,其他增建；
11403,公寓,台北市中山區民生東路二段１４７巷１１弄１８號四樓,2050,76.47,26.81,8.09,58.1,4,4,無,5,3,2,25.059849,121.535663,陽台外推；頂樓加蓋；
11403,華廈,台北市中山區合江街１０５號,3880,134.45,28.86,7.21,13.5,1,7,無,無隔間,0,0,25.059795,121.5393,
11403,華廈,台北市中山區雙城街４９巷１８號,2600,95.59,27.2,4.4,11.3,1,7,無,2,1,1,25.067888,121.525382,
11403,大樓,台北市中山區新生北路三段１０號五樓之３,725,79.81,9.08,0.89,41,5,12,無,1,1,1,25.063664,121.528022,
11403,公寓,台北市中山區龍江路３８４巷３１號三樓,2010,55.53,36.2,9.42,43.5,3,5,無,3,2,1,25.066888,121.539756,
11403,大樓,台北市中山區德惠街３４號六樓之３,645,73.3,8.8,0.92,46.3,6,11,無,1,1,1,25.066744,121.526994,鐵鋁窗其他增建；
11403,公寓,台北市中山區龍江路４４３巷１之２號五樓,1118,47.21,23.68,6.56,40.2,5,5,無,3,2,2,25.067307,121.541404,親友、員工、共有人或其他特殊關係間之交易；陽台外推；頂樓加蓋；
11403,華廈,台北市中山區農安街２５號三樓之１,2900,56.42,51.4,4.31,28.3,3,10,有,2,1,1,25.065005,121.524595,
11403,公寓,台北市中山區錦州街２４１巷１弄８號,3280,117.78,27.85,12.48,61,1,4,無,3,2,2,25.060645,121.534132,其他增建；
11403,大樓,台北市中山區松江路１８２號九樓之１,6500,69.65,93.32,8.28,48.5,9,12,無,6,2,3,25.056795,121.533391,陽台外推；
11403,大樓,台北市中山區錦州街２３巷１之１號十二樓,1680,100.05,16.79,1.74,10.3,12,14,無,2,1,1,25.061053,121.525092,夾層；其他增建；
11403,公寓,台北市中山區新生北路二段７７巷１之１號三樓,1580,74.22,21.29,7.83,48.5,3,4,無,2,1,1,25.056964,121.528157,天井增建陽台外推；其他增建；
11403,華廈,台北市中山區新生北路三段６１號四樓之２８,993,81.15,12.24,1.76,49.5,4,9,無,1,1,1,25.067007,121.528128,陽台外推；
11403,華廈,台北市中山區農安街２巷１８號二樓,3397.96,47.26,71.9,11.94,32.7,2,6,無,無隔間,0,0,25.065054,121.523705,親友、員工、共有人或其他特殊關係間之交易；
11403,大樓,台北市中山區新生北路三段１號三樓之１３,880,77.68,11.33,1.16,45.2,3,14,無,1,0,1,25.063664,121.528022,
11403,華廈,台北市中山區雙城街４巷２號七樓,1390,81.79,16.99,2.32,31.4,7,7,無,2,1,1,25.063354,121.523854,陽台外推；
11403,華廈,台北市中山區中原街４１號二樓之３,2300,50.83,45.25,6.54,48.3,2,7,無,3,2,2,25.056965,121.528935,陽台外推；
11403,大樓,台北市中山區林森北路５３８號七樓之２,1628,111.84,14.56,1.34,20.6,7,14,無,2,1,1,25.064465,121.525723,陽台外推；夾層；其他增建；
11403,大樓,台北市中山區民權東路三段２０號二樓,4688,87.21,53.76,7.59,29.3,2,15,無,3,2,2,25.062128,121.540435,陽台外推；其他增建；
11403,大樓,台北市中山區建國北路二段８５號十三樓之１,3056,86.86,35.18,4.48,43.3,13,13,無,3,2,2,25.058402,121.53742,其他增建；
11403,大樓,台北市中山區民權東路一段４８號十一樓之８,1200,105.41,16.28,1.14,18.4,11,12,有,1,1,1,25.062847,121.524589,夾層；其他增建；
11403,大樓,台北市中山區新生北路三段２６號十二樓之１６,720,74.94,9.61,1.04,44.7,12,12,無,1,1,1,25.063664,121.528022,其他增建；
11403,公寓,台北市中山區合江街１２７巷４號三樓,1200,40.52,29.61,8.47,52.8,3,4,無,3,1,1,25.060655,121.539516,親友、員工、共有人或其他特殊關係間之交易；
11403,大樓,台北市中山區民生東路一段７２號十樓,860,53.33,16.13,1.59,44.9,10,12,無,1,1,1,25.058184,121.526803,
11403,大樓,台北市中山區德惠街３４號十一樓之２５,520,75.36,6.9,0.74,46.3,11,11,無,1,1,1,25.066744,121.526994,
11403,華廈,台北市中山區錦州街３５３號五樓之１,2000,72.31,27.66,5.02,41.8,5,7,無,3,2,1,25.06045,121.539766,其他增建；
11403,華廈,台北市中山區農安街２７３號四樓,980,50.07,19.57,2.76,42.6,4,7,無,3,2,2,25.064879,121.536239,親友、員工、共有人或其他特殊關係間之交易；
11403,華廈,台北市中山區新生北路三段８２號五樓之３,2048,69.48,29.48,4.43,39.2,5,8,無,2,2,1,25.067007,121.528128,
11403,大樓,台北市中山區德惠街３４號七樓之５,820,93.18,8.8,0.92,46.3,7,11,無,1,1,1,25.066744,121.526994,
11403,華廈,台北市中山區合江街１８６號二樓,519.3074,28.54,18.2,3.61,48.3,2,7,無,4,2,2,25.061316,121.539155,親友、員工、共有人或其他特殊關係間之交易；
11403,公寓,台北市中山區錦州街３３２號二樓,1738,57.29,30.33,10.74,55.3,2,4,無,3,2,1,25.060181,121.538575,鋁窗增建其他增建；
11403,華廈,台北市中山區農安街３４號五樓之１０,750,81.93,9.15,1.03,46.9,5,10,無,1,1,1,25.064991,121.526626,親友、員工、共有人或其他特殊關係間之交易；其他增建；
11403,華廈,台北市中山區新生北路二段１２１之３號,3780,65.72,57.52,12.44,40.2,1,7,無,0,0,2,25.059306,121.527935,
11403,公寓,台北市中山區錦州街３２７號三樓,1900,55.15,34.45,11.65,52.3,3,4,無,3,1,1,25.060318,121.538737,親友、員工、共有人或其他特殊關係間之交易；
11403,華廈,台北市中山區新生北路三段６１號三樓之２４,1160,94.8,12.24,1.67,49.5,3,9,無,2,1,1,25.067007,121.528128,陽台外推；
11403,華廈,台北市中山區林森北路４１６巷３號二樓之１,508,60.6,8.38,2.61,51.3,2,4,無,無隔間,0,0,25.059748,121.525599,
11403,大樓,台北市中山區新生北路三段５８號六樓之１０,1268,95.33,13.3,1.19,43.3,6,12,無,3,1,1,25.065499,121.528083,陽台外推；
11403,華廈,台北市中山區民生東路二段１４７巷３號,4958,108.64,45.64,9.17,41.4,1,7,無,1,2,2,25.058527,121.535385,其他增建；
11403,公寓,台北市中山區龍江路４４３巷２號五樓,1110,85.96,12.91,3.38,43.1,5,5,無,1,1,1,25.06716,121.541135,陽台外推；頂樓加蓋；其他增建；
11403,大樓,台北市中山區雙城街２５巷７號三樓,6388,90.43,70.64,6.34,10.3,3,13,有,4,2,2,25.066262,121.524959,
11403,華廈,台北市中山區龍江路２８１巷３號二樓,3596,77.47,46.42,8.32,45.2,2,7,無,4,2,2,25.059887,121.540961,陽台外推；其他增建；
11403,公寓,台北市中山區五常街５３巷１７號,3070,105.07,29.22,7.16,46.7,1,5,無,5,0,1,25.065372,121.539809,其他增建；
11403,公寓,台北市中山區農安街７７巷９弄２４號,1360,92.81,14.65,7.66,58,1,3,無,1,1,1,25.066133,121.529185,其他增建；
11403,公寓,台北市中山區吉林路１６１巷２４號五樓之１,1280,80.58,15.88,3.6,41.5,5,5,無,2,1,1,25.058792,121.53196,陽台外推；其他增建；
11403,華廈,台北市中山區建國北路三段２２巷１９號三樓之１,1000,65.67,15.23,2.65,33.4,3,5,無,1,1,1,25.063877,121.535643,
11403,華廈,台北市中山區松江路１９４巷３４號六樓,470,64.68,7.26,1.91,49.1,6,6,無,3,2,1,25.057069,121.531255,親友、員工、共有人或其他特殊關係間之交易；
11403,大樓,台北市中山區新生北路三段１２號六樓,1160,90.48,12.82,1.33,13.4,6,11,無,1,1,1,25.063664,121.528022,
11403,華廈,台北市中山區林森北路６１２號六樓,3500,61.8,56.64,6.99,51.8,6,8,無,4,2,1,25.066441,121.525596,
11403,大樓,台北市中山區林森北路４８３號十四樓之５,1030,80.15,12.85,1.34,23.2,14,14,無,1,1,1,25.061237,121.525652,陽台外推；
11403,大樓,台北市中山區新生北路二段１０８號三樓之１５,506,45.42,11.14,0.77,47.2,3,14,無,無隔間,0,0,25.060068,121.527258,其他增建；
11403,大樓,台北市中山區新生北路二段１０８號三樓之１６,380,44.88,8.47,0.6,47.2,3,14,無,無隔間,0,0,25.060068,121.527258,其他增建；
11403,公寓,台北市中山區民權東路二段７１巷２１弄２２號二樓,710,60.54,11.73,6.4,58.9,2,3,無,4,2,2,25.063412,121.532481,親友、員工、共有人或其他特殊關係間之交易；其他增建；
11403,華廈,台北市中山區合江街１００巷２５號四樓,3000,84.06,35.69,9.2,44.7,4,6,無,3,2,2,25.058391,121.538013,
