成交年月,型式,地址,成交總價(萬),單價(萬/坪),建物坪數,土地坪數,屋齡,樓層,總樓層,車位,房,廳,衛,lat,lon,備註
11502,公寓,台北市北投區大業路５９６號二樓,1520,42.59,35.69,7.55,43.1,2,5,無,2,2,2,25.1362,121.497494,親友、員工、共有人或其他特殊關係間之交易；
11501,公寓,台北市北投區新市街７３號四樓,750,40.97,18.31,3.07,43,4,5,無,3,1,2,25.132932,121.502454,
11501,大樓,台北市北投區大興街３２號二樓,3130,73.82,42.4,5.56,13.3,2,12,有,2,2,1,25.130258,121.499624,
11501,公寓,台北市北投區民族街４２巷１號三樓,1120,38.37,29.19,12.93,52.8,3,4,無,3,2,1,25.133075,121.506347,
11501,公寓,台北市北投區新市街７３號四樓,730,39.87,18.31,3.07,43,4,5,無,3,1,2,25.132932,121.502454,
11501,大樓,台北市北投區中和街２３７號六樓之２,585,52.65,11.11,1.07,1.7,6,14,無,1,1,1,25.139464,121.501189,親友、員工、共有人或其他特殊關係間之交易；
11412,大樓,台北市北投區溫泉路７３巷６號五樓之２,950,58.67,16.19,2.38,16.5,5,12,無,1,1,1,25.135954,121.506551,其他增建；
11412,公寓,台北市北投區公路１４５巷１弄３號二樓,800,56.17,14.24,9.83,55.6,2,2,無,1,2,1,25.132377,121.502949,頂樓加蓋；其他增建；
11412,華廈,台北市北投區石牌路一段５８巷３３號三樓,2900,63.34,45.78,8.45,41.3,3,7,無,4,2,2,25.132377,121.502949,
11412,大樓,台北市北投區大業路５１６號四樓,4368,94.4,54.43,5.06,2.4,4,24,有,3,2,2,25.134722,121.496765,
11412,華廈,台北市北投區三合街一段８２巷３０弄５號五樓,2605,100.79,25.85,5.52,0.5,5,9,無,2,2,2,25.128051,121.504736,
11412,大樓,台北市北投區溫泉路３７巷２６號九樓之１０,920,72.26,12.73,2.78,20.3,9,13,無,0,1,1,25.133834,121.503003,陽台外推；夾層；
11412,公寓,台北市北投區奇岩路１２之１０號,738,47.51,15.53,9.91,13.4,1,5,無,無隔間,0,0,25.133234,121.507445,
11412,大樓,台北市北投區大同街２８號六樓,4300,111.17,45.93,6.41,1.8,6,18,有,2,2,2,25.132141,121.500087,
11412,公寓,台北市北投區珠海路９號四樓,1366,50.68,26.95,8.32,51.3,4,4,無,3,2,1,25.137819,121.501783,頂樓加蓋；
11412,大樓,台北市北投區大業路４６２之２號六樓,3180,70.54,45.08,5.28,29.2,6,19,有,3,2,2,25.132021,121.496523,陽台外推；其他增建；
11412,大樓,台北市北投區中和街２０巷２號四樓之１０,1340,80.02,16.75,2.17,19.8,4,13,無,2,2,1,25.138581,121.504426,陽台外推；夾層；
11412,華廈,台北市北投區三合街一段８２巷９３號四樓,3350,87,47.11,6.53,10.7,4,9,有,2,2,2,25.130579,121.505286,
11412,華廈,台北市北投區公路２２８巷１１１號六樓,2660,64.23,43.28,8.88,7.5,6,7,有,2,2,1,25.126653,121.509243,陽台外推；其他增建；
11412,大樓,台北市北投區中和街２３７號六樓之２,585,52.65,11.11,1.07,1.7,6,14,無,1,1,1,25.139464,121.501189,親友、員工、共有人或其他特殊關係間之交易；
11412,公寓,台北市北投區大同街２０４巷１號一樓,2250,65.73,34.23,10.97,47.4,1,4,無,3,1,1,25.138118,121.499523,其他增建；
11412,華廈,台北市北投區三合街一段８２巷３０弄１９號七樓,2760,77.68,35.53,5.28,0.5,7,9,有,0,2,2,25.128051,121.504736,
11412,大樓,台北市北投區磺港路１０２號三樓,3440,74.66,46.08,5.51,2.8,3,16,有,3,2,2,25.130676,121.503596,
11412,公寓,台北市北投區中和街２９２巷２號,1683,89.05,18.9,11.55,58.1,1,3,無,1,1,1,25.140644,121.50044,其他增建；
11412,華廈,台北市北投區公路２７６巷３之１號四樓,1850,75.52,24.5,6.1,32,4,5,無,2,2,1,25.125326,121.50729,陽台外推；其他增建；
11412,華廈,台北市北投區中和街４０號五樓之１２,445,43.06,10.33,1.46,45.6,5,8,無,無隔間,0,0,25.138261,121.502439,其他增建；
11412,公寓,台北市北投區清江路６５號四樓,420,13.39,31.37,0,45.3,4,4,無,3,1,1,25.130397,121.501942,僅有建物交易；建物坐落地號：溫泉段四小段425地號；頂樓加蓋；
11412,華廈,台北市北投區奇岩路２４１巷７弄４６號三樓,4364,58.02,79.92,42.21,6.3,3,5,有,4,2,2,25.129626,121.509328,
11412,大樓,台北市北投區光明路２００號五樓,875,52.15,16.78,1.36,21,5,14,有,1,1,1,25.136035,121.503497,陽台外推；夾層；
11411,華廈,台北市北投區三合街一段８２巷５０弄３１號八樓,5948,58.85,101.06,16.17,8.1,8,10,有,4,2,2,25.127026,121.505603,親友、員工、共有人或其他特殊關係間之交易；
11411,大樓,台北市北投區北投路二段３１號十樓,5180,60.86,85.11,16.69,35.4,"10,11",13,有,5,2,2,25.131402,121.497755,陽台外推；其他增建；
11411,大樓,台北市北投區溫泉路３７巷２６號四樓之６,750,62.23,12.05,2.69,20.3,4,13,無,1,1,1,25.133834,121.503003,親友、員工、共有人或其他特殊關係間之交易；夾層；其他增建；
11411,大樓,台北市北投區中央北路一段１９３號十一樓之１,3950,61.18,64.56,8.16,22.8,11,11,有,3,2,2,25.135774,121.497588,
11411,公寓,台北市北投區大同街２２８巷３０號二樓,870,52.01,16.73,3.63,48.3,2,5,無,2,2,1,25.13938,121.499783,陽台外推；
11411,大樓,台北市北投區光明路２４２號十三樓之７,806,58.24,13.84,2.02,16.6,13,19,無,1,0,1,25.1364,121.50421,陽台外推；
11411,大樓,台北市北投區中山路４７號十樓之１０,345,35.16,9.81,1.75,41.9,10,12,無,無隔間,0,0,25.137045,121.508308,陽台外推；
11411,大樓,台北市北投區光明路１８５號十三樓,3800,66.36,57.27,6.2,14.8,13,14,有,4,2,3,25.136035,121.503497,
11411,華廈,台北市北投區泉源路３０號,600,37.9,15.83,2.8,48.2,1,7,無,1,1,1,25.139954,121.506675,其他增建；
11411,大樓,台北市北投區大同街２８號八樓,3930,101.08,46.2,6.41,1.8,8,18,有,2,2,2,25.132141,121.500087,
11411,大樓,台北市北投區中山路４７號五樓之１１,320,32.61,9.81,1.75,41.9,5,12,無,無隔間,0,0,25.137045,121.508308,陽台外推；
11411,大樓,台北市北投區光明路６８號三樓之６,3700,78.12,47.36,3.66,18.3,3,23,有,3,2,2,25.132962,121.500319,其他增建；
11411,公寓,台北市北投區大同街２０８巷１０號三樓,1260,45.9,27.45,9.45,47.4,3,4,無,3,2,1,25.13835,121.499725,鐵窗、雨遮增建土地成交價：1236.5萬建物成交價：23.5萬其他增建；
11411,華廈,台北市北投區泉源路２６之１號七樓,600,40.47,14.83,3.01,47.8,7,7,無,無隔間,0,0,25.139286,121.506155,其他增建；
11411,大樓,台北市北投區北投路一段７７號五樓之５,1070,80.39,13.31,1.92,18,5,11,無,無隔間,0,0,25.128283,121.500121,
11411,大樓,台北市北投區大同街２２號十樓,4448,106.31,49.06,6.92,1.8,10,18,有,3,2,2,25.132489,121.499731,
11411,公寓,台北市北投區溫泉路９９之１１號四樓,580,42.98,13.49,3.45,40.5,4,5,無,1,1,1,25.136482,121.510141,陽台外推；
11411,大樓,台北市北投區光明路６６號十樓之３,5140,82.98,79.29,6.19,18.3,10,23,有,4,2,2,25.132962,121.500319,陽台外推；
11411,華廈,台北市北投區三合街一段８２巷１１６號七樓,3588,88.34,52.58,8.29,7.9,7,9,有,3,2,2,25.129333,121.504607,
11411,公寓,台北市北投區泉源路３５巷１７號五樓,780,35.1,22.22,5.17,47.7,5,5,無,2,2,2,25.140366,121.505759,陽台外推；
11411,大樓,台北市北投區中央南路二段１２之１０號四樓,1058,66.8,15.84,2.55,10.6,4,19,無,1,1,1,25.126836,121.499596,
11411,大樓,台北市北投區溫泉路３７巷３０號五樓之９,1260,64.88,19.42,3.96,20.3,5,13,無,1,2,2,25.133834,121.503003,佔梯夾層；其他增建；
11411,大樓,台北市北投區豐年路一段５２號五樓之２,2930,68.32,51.83,9.26,15.7,5,12,有,3,2,2,25.134394,121.497834,其他增建；
11411,公寓,台北市北投區公路２３１巷１４號二樓,1700,44.18,38.48,13.04,36.8,2,5,無,3,2,2,25.126624,121.50887,其他增建；
11410,公寓,台北市北投區公路２６８號二樓,1000,39.43,25.36,10.89,56.6,2,3,無,3,2,2,25.126907,121.507649,
11410,大樓,台北市北投區中山路４７號十一樓之３,288.8,29.43,9.81,1.69,41.9,11,12,無,1,1,1,25.137045,121.508308,陽台外推；
11410,華廈,台北市北投區中正街４９巷３５號三樓之２,2575,80.08,32.16,9.49,28.3,3,7,有,4,2,2,25.131466,121.499728,夾層；其他增建；
11410,華廈,台北市北投區中和街４０號七樓之４３,400,41.82,9.57,1.35,45.6,7,8,無,1,0,1,25.138261,121.502439,其他增建；
11410,大樓,台北市北投區光明路２４２號十三樓之６,1772,35.71,49.62,3.57,16.6,13,19,有,1,1,1,25.1364,121.50421,
11410,大樓,台北市北投區泉源路１２號四樓之５,580,64.1,9.05,1.02,47,4,11,無,1,1,1,25.138218,121.504626,陽台外推；
11410,公寓,台北市北投區大業路５５８號二樓,480,95.24,5.04,1.68,49.8,2,4,無,2,1,1,25.135272,121.497064,具重建或重劃、都更等效益；
11410,公寓,台北市北投區大業路５５８號二樓,480,95.24,5.04,1.68,49.8,2,4,無,2,1,1,25.135272,121.497064,具重建或重劃、都更等效益；
11410,華廈,台北市北投區奇岩路２４１巷７弄３８號,3780,57.92,69.79,36.25,6.3,1,5,有,4,2,2,25.129622,121.509783,
11410,大樓,台北市北投區溫泉路３７巷２８號十一樓之５,800,66.77,11.98,2.36,20.3,11,13,無,1,1,1,25.133834,121.503003,陽台外推；夾層；其他增建；
11410,華廈,台北市北投區三合街一段８２巷７１號六樓之２,3100,91.18,57,6.41,3.7,6,8,有,1,2,1,25.129059,121.504217,
11410,大樓,台北市北投區光明路２００號八樓之１,920,55.72,16.51,1.28,21,8,14,有,無隔間,0,0,25.136035,121.503497,陽台外推；夾層；
11410,公寓,台北市北投區清江路１５１巷１８弄２號二樓,385,51.3,7.51,1.83,41.6,2,5,無,2,2,1,25.128617,121.502675,親友、員工、共有人或其他特殊關係間之交易；
11410,大樓,台北市北投區大業路４６２之７號十七樓,5900,74.55,79.14,9.09,29.2,"17,18",19,有,5,2,2,25.13205,121.496962,親友、員工、共有人或其他特殊關係間之交易；
11410,大樓,台北市北投區大興街８１號十六樓,3825,66.49,57.52,4.37,1.3,16,27,有,3,2,2,25.130959,121.501629,
11410,公寓,台北市北投區溫泉路６８巷４之１號四樓,1306,40.01,32.64,13.99,52.3,4,4,無,3,2,1,25.134729,121.505383,鐵窗、鐵柵欄增建其他增建；
11410,大樓,台北市北投區光明路２４２號七樓之８,1620,64.85,36.12,3.3,16.6,7,19,有,1,1,1,25.1364,121.50421,陽台外推；
11410,大樓,台北市北投區光明路２００號四樓之２５,800,70.71,11.31,1.24,21,4,14,無,1,1,1,25.136035,121.503497,陽台外推；夾層；
11410,華廈,台北市北投區泉源路３０號七樓之４,798,50.41,15.83,2.8,48.2,7,7,無,1,1,1,25.139954,121.506675,陽台外推；其他增建；
11410,公寓,台北市北投區崇仁路一段１３１巷１０弄５號三樓,1850,53.94,34.3,13.72,39.4,3,5,無,3,2,2,25.124674,121.502614,
11410,華廈,台北市北投區三合街一段８２巷８０號六樓,5858,85.38,89.13,13.35,11,6,8,有,3,2,2,25.12865,121.504637,
11410,大樓,台北市北投區大同街３８號十一樓,2780,100.3,34.77,4.39,1.8,11,18,有,2,2,1,25.13156,121.50068,
11410,大樓,台北市北投區光明路１８５號十一樓之２,2300,77.7,29.38,3.17,14.8,11,14,有,2,2,1,25.136035,121.503497,
11410,大樓,台北市北投區溫泉路３７巷２６號九樓之３,1150,51.47,22.34,2.86,20.3,9,13,有,1,1,1,25.133834,121.503003,陽台外推；
11410,公寓,台北市北投區大興街２４巷８弄１號二樓,1880,59.49,31.6,11.38,46.3,2,4,無,3,2,1,25.128755,121.498832,
11410,公寓,台北市北投區溫泉路６８巷１５號三樓,1250,36.66,34.1,12.16,39.7,3,5,無,3,2,2,25.134933,121.505819,
11410,大樓,台北市北投區大同街３６號十一樓,4250,101.24,49.06,6.92,1.8,11,18,有,3,2,2,25.131676,121.500562,
11410,大樓,台北市北投區溫泉路６５巷１６號十一樓,1068,58.38,18.3,1.69,48.2,11,12,無,1,1,1,25.135972,121.504337,陽台外推；
11410,公寓,台北市北投區中央南路一段１０２巷３８之１號二樓,480,49.98,9.6,8.81,48.5,2,3,無,1,1,1,25.131352,121.499987,
11409,公寓,台北市北投區永興路一段６號,1800,76.19,23.63,7.18,47.4,1,4,無,2,1,1,25.138758,121.499542,親友、員工、共有人或其他特殊關係間之交易；
11409,華廈,台北市北投區中和街４０號六樓之７,370,42.19,8.77,1.16,45.6,6,8,無,1,0,1,25.138261,121.502439,
11409,華廈,台北市北投區溫泉路７１之１３號,192,21.85,8.79,1.06,45.1,1,7,無,1,1,1,25.135827,121.504964,親友、員工、共有人或其他特殊關係間之交易；
11409,華廈,台北市北投區溫泉路７１號地下一樓之７,460,34.19,13.46,1.63,45.1,地下層,7,無,1,1,1,25.135541,121.505276,
11409,華廈,台北市北投區溫泉路７１號七樓之３３,480,40.89,11.74,1.45,45.1,7,7,無,1,1,1,25.135541,121.505276,
11409,大樓,台北市北投區磺港路１４２號十八樓之１,5000,57.27,87.3,9.37,6.7,18,18,有,3,2,2,25.129197,121.501452,親友、員工、共有人或其他特殊關係間之交易；
11409,大樓,台北市北投區光明路２００號十二樓之１８,900,59.09,15.23,1.65,21,12,14,無,1,1,1,25.136035,121.503497,
11409,華廈,台北市北投區大興街８０號六樓,3880,98.91,47.75,9.24,1.1,6,8,有,3,2,2,25.130589,121.501736,
11409,大樓,台北市北投區光明路２０１號十一樓,3268,64.37,50.77,4.04,8.7,11,24,有,2,2,2,25.136035,121.503497,
11409,公寓,台北市北投區清江路１５１巷１８弄６號,1900,54.01,35.18,8.51,41.6,1,5,無,4,1,2,25.128743,121.502988,其他增建；
11409,大樓,台北市北投區中央北路二段３５０巷９２號四樓,3058,52.56,58.19,14.44,10.7,4,14,有,3,2,2,25.136935,121.49496,
11409,華廈,台北市北投區文化三路６９號,1895,53.4,35.49,9.59,40.3,1,7,無,3,2,2,25.139751,121.498248,其他增建；
11409,華廈,台北市北投區中和街４０號五樓之１,1000,59.13,16.91,2.25,45.6,5,8,無,1,1,1,25.138261,121.502439,親友、員工、共有人或其他特殊關係間之交易；
11409,華廈,台北市北投區大興街８０號七樓之１,2910,74.05,47.68,9.24,1.1,7,8,有,3,2,2,25.130589,121.501736,親友、員工、共有人或其他特殊關係間之交易；
11409,華廈,台北市北投區清江路９１巷１６號七樓,1485.85,49.99,32.18,5.01,1.3,7,10,有,2,2,2,25.129765,121.502249,親友、員工、共有人或其他特殊關係間之交易；
11409,公寓,台北市北投區民族街６８巷２號二樓,1760,41.79,42.12,13.68,43.3,2,5,無,3,2,2,25.133984,121.506653,其他增建；
11409,大樓,台北市北投區大業路５２０號十六樓,2558,94.49,35.66,2.76,2.4,16,24,有,1,2,1,25.134722,121.496775,
11409,大樓,台北市北投區珠海路２８號十一樓之１,1395,69.34,20.12,2.53,28.3,11,14,無,2,1,1,25.137723,121.502312,陽台外推；
11409,公寓,台北市北投區清江路２６８巷８號三樓,1850,50.64,36.53,17.09,37.5,3,5,無,3,2,2,25.125769,121.501369,
11409,大樓,台北市北投區大同街３２號十二樓,5520,108.3,57.96,8.5,1.8,12,18,有,3,2,2,25.131908,121.500324,
11409,公寓,台北市北投區奇岩路４０號三樓,880,39.1,22.51,13.01,57.2,3,3,無,3,1,1,25.133309,121.507587,頂樓加蓋；
11409,華廈,台北市北投區溫泉路７１號二樓之３３,520,44.87,11.59,1.41,45.1,2,7,無,無隔間,0,0,25.135541,121.505276,陽台外推；
11409,大樓,台北市北投區公路４１８號十樓,3038,63.87,54.36,9.95,27.7,10,14,有,2,2,1,25.126907,121.507649,陽台外推；其他增建；
11409,華廈,台北市北投區永興路二段４７號,720,66.17,10.88,2.21,15.5,1,8,無,1,1,1,25.140329,121.502442,陽台外推；其他增建；
11409,華廈,台北市北投區奇岩路２４１巷７弄４８號,3518,57.64,65.37,33.65,6.3,1,5,有,4,2,2,25.129626,121.509328,
11409,大樓,台北市北投區溫泉路３７巷３０之７、３０之８號,1610,79.11,24.84,3.96,20.3,1,13,有,3,1,1,25.135033,121.503011,
11408,大樓,台北市北投區中和街２８號十四樓之１０,1988,62.5,31.81,3.39,26,14,17,有,3,2,2,25.138261,121.502818,夾層；其他增建；
11408,大樓,台北市北投區大同街３６號四樓,4338,102.98,49.06,6.92,1.8,4,18,有,3,2,2,25.131676,121.500562,
11408,華廈,台北市北投區文化三路１２之２號十樓,2425,55.19,43.94,12.01,31.2,10,10,無,3,2,2,25.137417,121.497825,其他增建；
11408,大樓,台北市北投區中正街４９巷２０號五樓之２,1960,76.4,25.66,4.79,19.1,5,14,無,2,2,1,25.131682,121.499715,
11408,華廈,台北市北投區中山路２８之５號六樓,460,38.36,11.99,1.72,44.3,6,8,無,1,1,1,25.137312,121.510392,陽台外推；
11408,公寓,台北市北投區公路２５５巷１弄７號二樓,1470,45.6,32.24,8.93,45.2,2,5,無,3,2,2,25.125992,121.508669,陽台外推；
11408,公寓,台北市北投區復興一路３７號三樓,930,33.74,27.56,5.83,46.6,3,5,無,2,3,1,25.140048,121.502605,陽台外推；其他增建；
11408,大樓,台北市北投區中山路４７號五樓之１４,315,32.1,9.81,1.75,41.9,5,12,無,無隔間,0,0,25.137045,121.508308,陽台外推；
11408,公寓,台北市北投區中央南路二段３４巷５號,2500,44.33,56.39,16.39,42.3,1,5,無,無隔間,0,0,25.124799,121.499768,
11408,華廈,台北市北投區泉源路３０號三樓之５,640,39.53,16.19,2.8,48.2,3,7,無,1,1,1,25.139954,121.506675,陽台外推；
11408,華廈,台北市北投區三合街一段３６巷７號三樓,6188,79.32,78.01,12.92,10,3,9,有,2,2,2,25.127526,121.506166,
11408,華廈,台北市北投區奇岩路６之３號三樓,520,40.54,12.83,2.69,44.3,3,6,無,1,1,1,25.13411,121.507246,鐵鋁窗增建其他增建；
11408,大樓,台北市北投區公路４１８號十樓之１,2838,72.26,46.52,8.29,27.7,10,14,有,3,2,2,25.126907,121.507649,陽台外推；其他增建；
11408,大樓,台北市北投區大同街３０號六樓,3900,100.11,46.2,6.41,1.8,6,18,有,2,2,2,25.132024,121.500206,
11408,公寓,台北市北投區豐年路二段１００號二樓,420,43.51,9.65,2.95,50.3,2,4,無,3,1,1,25.136436,121.494921,親友、員工、共有人或其他特殊關係間之交易；陽台外推；
11408,公寓,台北市北投區崇仰一路３號二樓,1380,54.74,25.21,7.16,43.8,2,5,無,3,2,2,25.125034,121.508965,其他增建；
11408,公寓,台北市北投區溫泉路８５之１號一樓,1550,35.1,44.16,10.32,46.2,1,4,無,3,2,2,25.135541,121.505276,其他增建；
11408,公寓,台北市北投區大業路３００巷２６之１號四樓,1380,49.9,27.66,8.65,47.1,4,4,無,3,2,1,25.128161,121.499374,頂樓加蓋；其他增建；
11408,華廈,台北市北投區泉源路２６號三樓,975,66.58,14.64,3.01,47.8,3,7,無,2,2,1,25.139286,121.506155,其他增建為鐵鋁窗陽台外推；其他增建；
11408,大樓,台北市北投區大興街８１號十四樓,4230,73.54,57.52,4.37,1.3,14,27,有,3,2,2,25.130959,121.501629,
11408,華廈,台北市北投區豐年路一段２號二樓,2465,76.04,32.42,8.69,18.5,2,6,無,3,1,2,25.133953,121.498402,
11408,華廈,台北市北投區奇岩路２４１巷７弄２８號二樓,3520,51.61,72.44,37.83,6.3,2,5,有,4,2,2,25.129622,121.509783,
11408,華廈,台北市北投區中山路２８之２號七樓,530,46.12,11.49,1.61,44.3,7,8,無,無隔間,0,0,25.137312,121.510392,陽台外推；
11408,大樓,台北市北投區公路１６７巷３號四樓,4000,52.52,83.83,44,29.3,4,15,有,4,2,3,25.128829,121.507684,
11408,公寓,台北市北投區公路２３４巷１號三樓,1560,57.45,27.15,11.57,49.4,3,4,無,3,2,2,25.126064,121.507914,
11408,大樓,台北市北投區溫泉路３７巷２６號十樓之３,1568,65.59,23.91,5.3,20.3,10,13,無,2,2,1,25.133834,121.503003,陽台外推；其他增建；
11408,大樓,台北市北投區中和街２０巷２號四樓之１７,1125,82.17,13.69,1.77,19.8,4,13,無,1,1,1,25.138581,121.504426,陽台外推；夾層；其他增建；
11408,大樓,台北市北投區大業路５２６號,5868,82.92,78.7,8.07,2.4,"1,2",24,有,無隔間,0,0,25.134765,121.496655,
11408,大樓,台北市北投區泉源路１２號九樓之４,1430,63.88,22.38,2.31,47,9,11,無,2,2,1,25.138218,121.504626,陽台外推；其他增建；
11408,大樓,台北市北投區大同街３８號十二樓,2488,100.62,24.73,4.38,1.8,12,18,無,2,2,1,25.13156,121.50068,
11408,公寓,台北市北投區永興路二段３３巷１２弄１５號三樓,1080,40.47,26.68,10.45,49.1,3,4,無,3,2,1,25.140521,121.502325,
11408,公寓,台北市北投區公路２０９巷３８弄１號四樓,1633,57.74,28.28,11.62,55.8,4,4,無,3,2,1,25.127921,121.509444,增建項目：鐵皮屋頂增建、陽台外推、上下樓層內梯、頂樓其他增建；
11408,公寓,台北市北投區公路６３巷１９號二樓,1460,40.91,35.69,15.13,48.8,2,4,無,4,2,1,25.133163,121.504926,陽台外推；其他增建；
11407,公寓,台北市北投區大同街１２５巷１８號四樓,670,44.02,15.22,6.11,47.8,4,4,無,1,1,1,25.134834,121.498021,陽台外推；其他增建；
11407,華廈,台北市北投區溫泉路７１號二樓之７,766,63.88,11.99,1.5,45.1,2,7,無,1,1,1,25.135541,121.505276,陽台外推；其他增建；
11407,大樓,台北市北投區大同街３８號三樓,2530,102.32,24.73,4.38,1.8,3,18,無,2,1,1,25.13156,121.50068,
11407,華廈,台北市北投區奇岩路２４１巷７弄２８號四樓,3580,52.39,72.44,37.83,6.3,4,5,有,4,2,2,25.129622,121.509783,
11407,華廈,台北市北投區光明路２４０之１４號三樓,828,54.12,15.3,2.78,43.8,3,7,無,1,1,1,25.136076,121.507411,陽台外推；
11407,公寓,台北市北投區中央南路一段１９６巷５號二樓,1138,58.51,19.45,14.32,55.5,2,3,無,2,2,2,25.128506,121.500776,
11407,公寓,台北市北投區中央南路一段１９６巷５號三樓,1150,59.12,19.45,14.32,55.5,3,3,無,2,2,2,25.128506,121.500776,
11407,華廈,台北市北投區中山路２８之３號地下一層,2920,37.15,78.6,11.21,44.3,地下層,8,無,無隔間,0,0,25.137312,121.510392,
11407,公寓,台北市北投區泉源路３５巷９號三樓之１,600,38.72,15.5,4.01,47.7,3,5,無,2,2,1,25.140342,121.505851,其他增建；
11407,公寓,台北市北投區中央南路一段１０２巷８號四樓,450,42.88,10.49,3.1,48.4,4,4,無,3,1,1,25.130952,121.500675,親友、員工、共有人或其他特殊關係間之交易；
11407,大樓,台北市北投區光明路１６８號二樓,2288,81.47,31,2.45,16.2,2,11,有,2,2,1,25.135491,121.502743,親友、員工、共有人或其他特殊關係間之交易；
11407,公寓,台北市北投區崇仁路一段５２號二樓,1500,57.59,26.05,10.08,55.6,2,3,無,3,2,1,25.127001,121.501308,
11407,公寓,台北市北投區崇仁路一段５２號三樓,1500,57.59,26.05,10.08,55.6,3,3,無,3,1,1,25.127001,121.501308,
11407,大樓,台北市北投區光明路６８號六樓之３,2028,84.16,24.1,2.12,18.3,6,23,無,2,2,1,25.132962,121.500319,
11407,公寓,台北市北投區公路６３巷１１號三樓,1475,50.81,29.03,9.15,48.8,3,4,無,3,1,2,25.132942,121.504852,陽台外推；
11407,公寓,台北市北投區永興路一段４１號二樓,1150,49.01,23.46,4.72,48.3,2,5,無,3,1,1,25.139432,121.500245,陽台外推；
11407,大樓,台北市北投區大同街２８號二樓,2600,97.2,26.75,4.74,1.8,2,18,無,2,1,1,25.132141,121.500087,
11407,大樓,台北市北投區光明路２００號七樓之２５,730,64.52,11.31,1.24,21,7,14,無,1,1,1,25.136035,121.503497,陽台外推；夾層；其他增建；
11407,大樓,台北市北投區溫泉路７３巷６號八樓之１,950,56.42,16.84,2.56,16.5,8,12,無,1,1,1,25.135954,121.506551,其他增建；
11407,華廈,台北市北投區光明路２２６號三樓之１,1170,52.42,22.32,3.14,48.3,3,10,無,3,2,2,25.136582,121.50414,
11407,公寓,台北市北投區永興路一段３２巷１９號五樓,1158,39.59,29.25,16.09,46.8,5,5,無,3,2,2,25.137885,121.500176,頂樓加蓋；其他增建；
11407,公寓,台北市北投區永興路二段１８號二樓,1136,43.01,26.41,11.39,50.8,2,4,無,2,2,1,25.139931,121.501699,
11407,公寓,台北市北投區溫泉路６８巷８之１號四樓,1330,44.99,29.56,10.59,56,4,4,無,1,2,1,25.134924,121.505833,頂樓加蓋；其他增建；
11407,大樓,台北市北投區光明路２４２號四樓之６,1090,55.45,28.17,2.39,16.6,4,19,有,1,0,1,25.1364,121.50421,陽台外推；
11407,大樓,台北市北投區中央南路二段１２之２１號四樓,1168,62.4,25.88,2.59,10.6,4,19,有,0,0,1,25.126955,121.499748,
11407,華廈,台北市北投區三合街一段８２巷９７號七樓,2435,88,38.57,4.83,10.7,7,9,有,1,1,1,25.129059,121.504217,
11407,公寓,台北市北投區大業路３００巷９弄６號二樓,1726,56.9,30.33,12.1,45.3,2,4,無,3,2,2,25.128529,121.498537,其他增建；
11407,華廈,台北市北投區公路１６１巷３１號三樓,5300,58.69,97.94,46.46,10.3,3,5,有,3,2,2,25.129331,121.506575,
11407,公寓,台北市北投區崇仁路一段１５５巷８號三樓,1580,51.06,30.95,9.34,45.5,3,5,無,3,2,2,25.123589,121.50257,其他增建；
11407,公寓,台北市北投區溫泉路３４巷９弄１號四樓,1320,42.78,30.86,9.21,46.1,4,5,無,3,2,2,25.133254,121.503859,陽台外推；
11407,華廈,台北市北投區文化三路７９號四樓,1875,52.51,35.71,9.59,40.3,4,7,無,3,2,2,25.139277,121.498023,其他增建；
11407,公寓,台北市北投區清江路２４７巷５號,1635,94.05,17.38,11.8,56.1,1,2,無,4,1,4,25.125758,121.502024,其他增建；
11407,公寓,台北市北投區大同街１２５巷２０號四樓,730,43.58,16.75,7.05,47.8,4,4,無,1,1,1,25.134825,121.497961,陽台外推；其他增建；
11407,公寓,台北市北投區溫泉路５８巷２０號四樓,1380,48.66,28.36,10.78,46.7,4,5,無,3,2,2,25.133353,121.505462,陽台外推；
11407,公寓,台北市北投區永興路二段３３巷７弄１號,950,56.72,16.75,12.1,54.5,1,2,無,1,1,2,25.14026,121.501515,親友、員工、共有人或其他特殊關係間之交易；
11407,公寓,台北市北投區永興路二段３３巷１２弄１７號,486,37.47,12.97,5.23,49.1,1,4,無,3,2,1,25.14048,121.502394,親友、員工、共有人或其他特殊關係間之交易；其他增建；畸零地或有合併使用效益；
11407,華廈,台北市北投區大興街８０號八樓之２,2760,94.98,37.46,6.62,1.1,8,8,有,2,2,1,25.130589,121.501736,
11407,大樓,台北市北投區中央南路二段１２之１２號十一樓,1800,41.34,43.54,5.2,10.6,11,19,有,無隔間,0,0,25.125787,121.500533,
11407,華廈,台北市北投區三合街一段８２巷５０弄３７號七樓,6678,92.61,82.26,14.15,8.1,7,10,有,3,2,2,25.12867,121.505715,
11407,大樓,台北市北投區大同街３８號二樓,2765,100.9,34.5,4.39,1.8,2,18,有,2,1,1,25.13156,121.50068,
11407,華廈,台北市北投區大興街８０號三樓之３,2777,73.8,37.63,6.64,1.1,3,8,有,2,2,2,25.130589,121.501736,
11407,華廈,台北市北投區溫泉路７８號二樓之４,680,44.65,15.23,4.15,48.8,2,7,無,1,1,1,25.135372,121.505313,
11406,公寓,台北市北投區公路２０９巷１６弄２２號二樓,1300,45.39,28.64,7.26,41.7,2,5,無,3,2,1,25.127175,121.509546,其他增建；
11406,大樓,台北市北投區光明路６８號三樓之９,965,87.69,11,0.98,18.3,3,23,無,1,1,1,25.132962,121.500319,其他增建；
11406,大樓,台北市北投區光明路６８號十八樓之３,2520,63.15,39.9,2.77,18.3,18,23,有,2,2,1,25.132962,121.500319,陽台外推；其他增建；
11406,華廈,台北市北投區大業路６３３號五樓,5680,56.86,99.89,20.26,29.4,5,9,有,4,2,2,25.137352,121.49863,陽台外推；其他增建；
11406,華廈,台北市北投區清江路１７７巷２０號十樓,3250,86.4,44.89,8.54,24.3,10,10,有,3,2,2,25.127979,121.502612,陽台外推；其他增建；
11406,公寓,台北市北投區公路２３１巷２７弄３號二樓,1680,43.06,39.01,13.4,37.3,2,5,無,4,2,2,25.127242,121.509348,
11406,華廈,台北市北投區溫泉路７１號五樓之８,718,51.57,13.92,1.63,45.1,5,7,無,1,1,1,25.135541,121.505276,
11406,大樓,台北市北投區大業路３８８號八樓,2150,105.89,20.3,2.28,1.3,8,15,無,2,1,1,25.129839,121.49726,
11406,公寓,台北市北投區公路６３巷９弄１１號,930,53.82,17.28,10.44,60.7,1,0,無,1,1,1,25.132968,121.504523,
11406,大樓,台北市北投區光明路１６７號二樓之１,2000,42.31,47.27,5.43,34.3,2,12,無,0,2,1,25.135491,121.502743,親友、員工、共有人或其他特殊關係間之交易；陽台外推；
11406,華廈,台北市北投區光明路２４０之６號五樓,300,48.19,6.23,1.06,43.8,5,7,無,3,1,1,25.135964,121.507461,親友、員工、共有人或其他特殊關係間之交易；陽台外推；
11406,華廈,台北市北投區三合街一段６３號二樓,4310,47.15,91.41,13.35,11.3,2,9,有,3,2,2,25.126806,121.504598,親友、員工、共有人或其他特殊關係間之交易；
11406,公寓,台北市北投區泉源路３５巷２５之１號一樓,658,51.05,12.89,4.12,47.7,1,5,無,2,1,1,25.14037,121.505523,其他增建；
11406,大樓,台北市北投區中央南路二段１２之１９號十三樓,1100,42.59,25.83,2.57,10.6,13,19,有,1,1,1,25.125787,121.500533,夾層；
11406,華廈,台北市北投區文化三路４６號五樓,600,42.13,14.24,4.56,40,5,7,無,3,1,2,25.139292,121.499054,親友、員工、共有人或其他特殊關係間之交易；包含公共設施保留地用地；
11406,大樓,台北市北投區雙全街２０號十一樓,2370,75.08,31.57,3.74,18.8,11,13,無,3,2,2,25.13883,121.501023,陽台加窗、雨遮增建、露台增建其他增建；
11406,大樓,台北市北投區光明路２０３號二十一樓,5000,81,65.47,6.46,8.7,21,24,有,2,2,3,25.136035,121.503497,
11406,大樓,台北市北投區中央南路二段１２之１０號九樓,1250,64.41,27,2.79,10.6,9,19,有,1,1,1,25.126836,121.499596,
11406,大樓,台北市北投區大同街２２號八樓,4420,104.83,49.38,6.92,1.8,8,18,有,3,2,2,25.132489,121.499731,
11406,華廈,台北市北投區三合街一段８２巷１０８號五樓,2280,87.22,26.14,5.76,7.9,5,9,無,2,2,1,25.129333,121.504607,
11406,華廈,台北市北投區三合街一段３６巷７號三樓,6188,79.32,78.01,12.92,10,3,9,有,2,2,2,25.127526,121.506166,
11406,大樓,台北市北投區大同街２０號八樓,2871,103.98,34.77,4.39,1.8,8,18,有,2,2,1,25.132606,121.499613,
11406,華廈,台北市北投區文化三路２８號二樓,2358,47.97,49.16,15.85,40,2,7,無,3,2,2,25.139292,121.499054,陽台外推；其他增建；
11406,華廈,台北市北投區文化三路１１４號六樓,1924,44.49,43.24,13.78,40,6,7,無,3,2,2,25.139202,121.498632,其他增建；
11406,華廈,台北市北投區三合街一段７９巷１６號九樓,6666,93.42,91.7,14.07,9.7,9,9,有,3,2,3,25.127,121.505596,建物1213.2萬整、土地4852.8萬整、車位600萬元整
11406,大樓,台北市北投區中和街４９號十樓,1645,63.26,26,2.73,49.5,10,11,無,2,2,1,25.138456,121.502228,陽台外推；
11406,公寓,台北市北投區大興街９巷１５號,3590,60.42,59.41,10.76,42.8,1,5,無,4,2,2,25.130314,121.497441,其他增建；
11406,大樓,台北市北投區光明路２１７號八樓之３,885,73.29,12.08,1.44,29.3,8,12,無,1,1,1,25.136582,121.50414,陽台外推；
11406,華廈,台北市北投區奇岩路２４１巷７弄２２號三樓,3560,51.12,73.64,38.53,6.3,3,5,有,4,2,2,25.129377,121.510295,
11406,公寓,台北市北投區雙全街６２巷７號五樓,1240,44.82,27.67,7.68,45.3,5,5,無,3,2,1,25.137547,121.500542,陽台外推；其他增建；
11406,大樓,台北市北投區大業路５１８號,6930,87.54,87.28,9.12,2.4,"1,2",24,有,無隔間,0,0,25.134722,121.496765,
11406,公寓,台北市北投區永興路二段１２號四樓,1200,45.43,26.41,7.56,50.8,4,4,無,2,1,1,25.139885,121.501541,親友、員工、共有人或其他特殊關係間之交易；其他增建；
11406,華廈,台北市北投區清江路９１巷２０號七樓,719.9115,50.06,16.17,2.51,1.3,7,10,有,2,2,1,25.129892,121.502278,親友、員工、共有人或其他特殊關係間之交易；
11406,大樓,台北市北投區溫泉路６８巷６弄８號二樓,2600,47.29,54.98,6.92,9.3,2,11,有,2,2,2,25.134638,121.505147,其他增建；
11406,大樓,台北市北投區大同街２２號五樓,4300,102.26,49.06,6.92,1.8,5,18,有,3,2,2,25.132489,121.499731,
11406,公寓,台北市北投區大同街２２８巷４號四樓,690,41.25,16.73,3.75,48.3,4,5,無,3,1,1,25.139154,121.499589,陽台外推；其他增建；
11406,大樓,台北市北投區大同街２３０號四樓,3800,63.48,73.87,15.89,21.1,4,14,有,4,2,2,25.138125,121.49916,陽台外推；其他增建；
11406,大樓,台北市北投區中山路４７號三樓之１５,810,36.97,21.91,3.74,41.9,3,12,無,2,1,2,25.137045,121.508308,陽台外推；其他增建；
11406,華廈,台北市北投區文化三路７０號,2258,60.65,37.23,11.83,40,1,7,無,3,2,2,25.139978,121.498269,平台增建其他增建；
11406,大樓,台北市北投區大同街３８號七樓,3050,111.62,34.5,4.39,1.8,7,18,有,2,1,1,25.13156,121.50068,
11406,公寓,台北市北投區清江路９４號二樓,724,27.29,26.53,8.55,49.3,2,4,無,3,2,1,25.129948,121.501609,土地增值稅由買方負擔繳納。親友、員工、共有人或其他特殊關係間之交易；
11406,華廈,台北市北投區文化三路１２之４號二樓,2296,56.26,40.81,11.1,31.2,2,10,無,3,2,2,25.137213,121.497809,陽台外推；其他增建；
11406,華廈,台北市北投區公路２０９巷１５之１號,2300,75.93,30.61,15.33,11.3,1,5,有,2,2,1,25.127732,121.50839,其他增建；
11406,公寓,台北市北投區公路２２５號,2500,59.92,41.72,11.98,44.6,1,5,無,2,2,1,25.136652,121.502121,
11406,華廈,台北市北投區三合街一段３６巷１３號七樓,4720,72.18,65.39,10.81,10,7,9,有,4,2,2,25.127595,121.505859,
11405,公寓,台北市北投區公路２９６號三樓,1350,56.41,23.93,6.72,41.6,3,5,無,3,2,2,25.124841,121.506866,其他增建；
11405,大樓,台北市北投區溫泉路３７巷３０號五樓,1010,55.11,18.33,2.78,20.3,5,13,有,1,1,1,25.133834,121.503003,陽台外推；夾層；
11405,華廈,台北市北投區溫泉路８７號六樓之１,1045,50.17,20.83,3.13,27.4,6,9,有,2,1,1,25.135541,121.505276,夾層；其他增建；
11405,華廈,台北市北投區文化三路５７號六樓,1880,52.98,35.49,9.59,40.3,6,7,無,3,2,2,25.138897,121.497949,陽台外推；其他增建；
11405,大樓,台北市北投區光明路２０３號十樓,1630,78.78,20.69,2.22,8.7,10,24,無,1,1,1,25.136035,121.503497,
11405,華廈,台北市北投區奇岩路２４１巷７弄２２號五樓,3639,52.18,73.64,38.53,6.3,5,5,有,4,2,2,25.129377,121.510295,
11405,公寓,台北市北投區大業路３００巷３３號,2200,79.34,27.73,8.02,48.4,1,4,無,3,1,1,25.128509,121.499554,其他增建；
11405,華廈,台北市北投區中山路２８之１１號五樓,488,41.32,11.81,1.72,44.3,5,8,無,1,1,1,25.137312,121.510392,親友、員工、共有人或其他特殊關係間之交易；
11405,華廈,台北市北投區溫泉路７３巷１３號七樓之１,1280,47.03,27.22,3.47,26.3,7,8,有,1,1,1,25.135721,121.50621,
11405,大樓,台北市北投區雙全街２０號六樓之５,1688,72.37,23.33,2.77,18.8,6,13,無,2,2,1,25.13883,121.501023,其他增建；
11405,公寓,台北市北投區崇仁路一段８８號,2280,98.45,23.16,6.66,48.3,1,4,無,無隔間,0,0,25.125683,121.501599,其他增建；
11405,大樓,台北市北投區光明路２００號十一樓之１７,520,68.51,7.59,0.83,21,11,14,無,無隔間,0,0,25.136035,121.503497,陽台外推；夾層；
11405,華廈,台北市北投區三合街一段３６巷１９號七樓,6950,85.11,100.86,15.74,9.9,7,9,有,4,2,3,25.12823,121.504675,
11405,華廈,台北市北投區清江路１７７巷３５號四樓之１,1700,79.83,25.31,5.26,20.8,4,8,有,3,1,1,25.130959,121.502129,陽台外推；夾層；其他增建；
11405,大樓,台北市北投區光明路２０７號十樓,4100,79.54,55.23,5.31,8.7,10,24,有,3,2,2,25.136035,121.503497,本件買賣總價為新台幣4100萬元整內含車位總價新台幣250萬元整，其中拆分為：土地價款為新台幣24923900元整，建物價款為新台幣16076100元整。
11405,公寓,台北市北投區泉源路３５巷１６號二樓,550,43.51,12.64,2.4,47.7,2,5,無,無隔間,0,0,25.140654,121.505619,
11405,公寓,台北市北投區公路２３４巷７號二樓,240,35.36,6.79,3.44,49.4,2,3,無,3,1,1,25.125964,121.507747,親友、員工、共有人或其他特殊關係間之交易；
11405,大樓,台北市北投區光明路１６８號八樓之３,1500,66.9,22.42,1.98,16.2,8,11,無,2,1,1,25.135491,121.502743,夾層；
11405,華廈,台北市北投區三合街一段３８號九樓之６,3468,97.17,46.36,6.55,8.3,9,10,有,2,1,1,25.126541,121.508056,
11405,公寓,台北市北投區大興街２４巷２弄５號二樓,1620,56.45,28.7,8.97,46.3,2,4,無,3,2,1,25.129541,121.49838,其他增建；
11405,大樓,台北市北投區大業路３９２號六樓,4368,87.62,49.85,4.46,1.3,6,15,有,3,2,2,25.129872,121.49738,
11405,華廈,台北市北投區中山路２８之１１號三樓,465,40.63,11.44,1.72,44.3,3,8,無,1,1,1,25.137312,121.510392,陽台外推；
11405,華廈,台北市北投區溫泉路６５巷１０號地下之３,430,28.48,15.1,2.8,30.7,地下層,7,無,0,1,1,25.135972,121.504337,其他增建；
11405,大樓,台北市北投區中山路４７號八樓之４,560,28.42,19.7,3.5,41.9,8,12,無,無隔間,0,0,25.137045,121.508308,包含公共設施保留地用地；
11405,公寓,台北市北投區泉源路２１巷９號二樓,894.1719,45.32,19.73,18.94,54.4,2,3,無,3,2,1,25.139135,121.504538,總價含244萬元出賣人無償免除含土地增值稅或其他稅費351719元；親友、員工、共有人或其他特殊關係間之交易；
11405,華廈,台北市北投區奇岩路２４１巷７弄１２號五樓,3358,50.58,70.14,36.45,6.3,5,5,有,2,2,2,25.129128,121.510329,
11405,華廈,台北市北投區文化三路１２之５號四樓,2300,54.85,41.94,11.56,31.2,4,10,無,3,2,2,25.137163,121.49773,陽台外推；其他增建；
11405,公寓,台北市北投區豐年路一段３７巷１６號四樓,500,32.23,15.51,8.02,45.3,4,4,無,1,1,1,25.133781,121.497485,親友、員工、共有人或其他特殊關係間之交易；其他增建；
11405,華廈,台北市北投區三合街一段８２巷７０號六樓,4650,83.66,65.42,10.68,11,6,8,有,3,2,2,25.12697,121.505434,
11405,大樓,台北市北投區光明路２０３號十三樓,1788,64.97,27.52,2.25,8.7,13,24,有,1,1,1,25.136035,121.503497,
11405,公寓,台北市北投區大業路３００巷２８之１號三樓,1506,54.45,27.66,8.65,47.1,3,4,無,3,2,1,25.128197,121.499501,鐵窗增建其他增建；
11405,公寓,台北市北投區大興街９巷２１號四樓,1940,56.68,34.22,10.76,42.8,4,5,無,3,2,2,25.130612,121.497332,
11405,大樓,台北市北投區光明路２４２號三樓之９,980,58.14,16.86,2.47,16.6,3,19,無,1,1,1,25.1364,121.50421,陽台外推；
11405,華廈,台北市北投區大興街８０號四樓,3438,94.99,36.19,9.24,1.1,4,8,無,3,2,2,25.130589,121.501736,
11405,公寓,台北市北投區公路１３７巷１號五樓,1000,32.31,30.95,9.72,36.4,5,5,無,3,2,2,25.129788,121.505453,其他增建；
11404,華廈,台北市北投區泉源路２６之１號四樓之１,470,41.98,11.2,2.27,47.8,4,7,無,無隔間,0,0,25.139286,121.506155,陽台外推；
11404,大樓,台北市北投區北投路一段７７號四樓之１,2526,70.65,35.75,4.07,18,4,11,有,3,2,2,25.128283,121.500121,陽台外推；
11404,華廈,台北市北投區溫泉路７１號地下二樓之１２,556,22.07,25.2,3.61,45.1,地下層,7,無,2,2,1,25.135541,121.505276,其他增建；
11404,公寓,台北市北投區中央北路一段１６７巷１弄２９號,808,58.7,13.76,8.62,54.5,1,2,無,3,1,1,25.134885,121.497395,防火巷增建其他增建；
11404,公寓,台北市北投區溫泉路６８巷８號,1650,55.81,29.56,11.12,56,1,4,無,3,2,1,25.13481,121.505562,其他增建；
11404,華廈,台北市北投區清江路９１巷２０號七樓,1355,50.06,30.44,4.73,1.3,7,10,有,2,2,1,25.129892,121.502278,
11404,華廈,台北市北投區清江路９１巷２０號六樓,1362,55.66,24.47,4.73,1.3,6,10,無,2,2,1,25.129892,121.502278,
11404,華廈,台北市北投區奇岩路２４１巷７弄３８號五樓,3855,53.16,76.31,40.08,6.3,5,5,有,4,2,2,25.129622,121.509783,
11404,華廈,台北市北投區溫泉路５７號六樓,1950,48.75,40,11.18,31.6,6,8,無,3,2,2,25.13513,121.504363,陽台外推；其他增建；
11404,公寓,台北市北投區豐年路二段１００號二樓,60,18.64,3.22,0.98,50.3,2,4,無,2,2,1,25.136436,121.494921,親友、員工、共有人或其他特殊關係間之交易；
11404,大樓,台北市北投區中山路４７號十一樓之１２,306.6,31.24,9.81,1.75,41.9,11,12,無,1,1,1,25.137045,121.508308,陽台外推；
11404,大樓,台北市北投區中央北路一段１３１號四樓之１,1666,72.11,23.1,3.24,29.9,4,11,無,2,2,1,25.134977,121.498977,陽台外推；其他增建；
11404,公寓,台北市北投區永興路二段２６號三樓,1400,42.76,32.74,8.74,40.6,3,5,無,3,2,2,25.139995,121.501998,其他增建；
11404,大樓,台北市北投區中山路４７號四樓之１４,430,35.56,12.09,2.04,41.9,4,12,無,1,0,1,25.137045,121.508308,陽台外推；其他增建；
11404,華廈,台北市北投區中山路２８之５號一樓,845,35.98,23.48,3.33,44.3,1,8,無,1,2,1,25.137312,121.510392,其他增建；
11404,公寓,台北市北投區溫泉路６８巷８之１號三樓,1200,40.59,29.56,10.59,56,3,4,無,3,1,2,25.134924,121.505833,
11404,公寓,台北市北投區大業路３００巷１６之１號三樓,1520,51.01,29.8,9,47.1,3,4,無,3,2,2,25.128125,121.49886,陽台外推；
11404,公寓,台北市北投區大業路３００巷１６號三樓,2050,65.57,31.26,9.44,47.1,3,4,無,3,2,1,25.128212,121.498863,陽台外推；其他增建；
11404,公寓,台北市北投區民族街４３巷２６號二樓,1206,39.04,30.89,9.2,48.3,2,5,無,4,1,2,25.134102,121.506212,陽台外推；其他增建；
11404,華廈,台北市北投區公路２０９巷２９號,3100,71.64,43.27,20.81,11.3,1,5,有,3,2,2,25.127626,121.508005,
11404,大樓,台北市北投區光明路６８號五樓之５,2600,68.24,38.1,2.77,18.3,5,23,有,2,2,1,25.132962,121.500319,陽台外推；
11404,公寓,台北市北投區中央南路一段１９６巷３號二樓,710,41.84,16.97,10.89,55.5,2,3,無,2,1,1,25.128521,121.500845,
11404,公寓,台北市北投區中央北路二段９５巷１弄３８號四樓,1506,49.77,30.26,8.74,46.5,4,5,無,3,2,2,25.135789,121.496362,陽台外推；
11404,大樓,台北市北投區大同街３８號四樓,2720,99.89,34.5,4.39,1.8,4,18,有,2,1,1,25.13156,121.50068,親友、員工、共有人或其他特殊關係間之交易；
11404,華廈,台北市北投區中央北路一段１７５號四樓,2488,53.13,46.83,4.65,29.2,4,10,有,2,2,2,25.135616,121.498015,陽台外推；其他增建；
11404,公寓,台北市北投區大興街２４巷６弄１２號三樓,1770,65.97,26.83,8.91,46.3,3,4,無,3,2,1,25.129056,121.498286,陽台外推；
11404,華廈,台北市北投區三合街一段８２巷１０６號三樓,2300,56.27,40.88,5.71,7.9,3,9,有,1,2,1,25.129249,121.50435,親友、員工、共有人或其他特殊關係間之交易；
11404,公寓,台北市北投區光明路５７號,3300,82.06,40.21,11.34,63.3,"1,2",0,無,1,1,2,25.13287,121.499836,親友、員工、共有人或其他特殊關係間之交易；
11404,大樓,台北市北投區光明路６８號十一樓之６,3458,70.22,49.24,3.66,18.3,11,23,有,3,2,2,25.132962,121.500319,鐵窗增建其他增建；
11404,華廈,台北市北投區溫泉路６５巷１０號五樓之６,580,69.09,8.39,1.76,30.7,5,7,無,1,1,1,25.135972,121.504337,陽台外推；其他增建；
11404,大樓,台北市北投區大同街３０號九樓,3993,102.13,45.93,6.41,1.8,9,18,有,2,2,2,25.132024,121.500206,
11404,公寓,台北市北投區永興路一段３２巷１弄３號二樓,1400,42.73,32.76,9.84,48,2,5,無,3,2,2,25.13894,121.500276,陽台外推；
11404,大樓,台北市北投區泉源路１２號六樓之１,612,55.19,11.09,1.15,47,6,11,無,1,1,1,25.138218,121.504626,
11403,大樓,台北市北投區中央南路二段１２之１３號十樓,1780,44.43,40.06,4.65,10.6,10,19,有,無隔間,0,0,25.126903,121.499459,
11403,大樓,台北市北投區光明路２００號九樓之２３,500,66.84,7.48,0.78,21,9,14,無,1,0,1,25.136035,121.503497,
11403,大樓,台北市北投區大同街３２號四樓,5240,102.25,57.96,8.5,1.8,4,18,有,3,2,2,25.131908,121.500324,
11403,華廈,台北市北投區溫泉路７１號三樓之７,710,59.09,12.02,1.5,45.1,3,7,無,2,1,1,25.135541,121.505276,陽台外推；其他增建；
11403,大樓,台北市北投區光明路１８５號六樓,3615,65.26,55.39,5.81,14.8,6,14,有,3,2,2,25.136035,121.503497,
11403,大樓,台北市北投區中和街２０巷２號六樓之１０,1340,80.02,16.75,2.17,19.8,6,13,無,2,2,1,25.138581,121.504426,陽台外推；夾層；
11403,大樓,台北市北投區大同街３０號三樓,3980,101.94,45.87,6.4,1.8,3,18,有,2,2,2,25.132024,121.500206,
11403,公寓,台北市北投區崇仁路一段６５號三樓,1400,56.19,24.92,7.64,23.4,3,4,無,3,2,1,25.126676,121.50151,親友、員工、共有人或其他特殊關係間之交易；
11403,大樓,台北市北投區大同街２０號九樓,2928,106.69,34.77,4.39,1.8,9,18,有,2,1,1,25.132606,121.499613,
11403,公寓,台北市北投區中央北路二段１７號三樓,1240,47.42,26.15,5.09,48.8,3,5,無,2,2,1,25.136414,121.496119,其他增建/遮雨棚增建其他增建；
11403,華廈,台北市北投區溫泉路７１號七樓之３１,400,49.25,8.12,1.06,45.1,7,7,無,1,1,1,25.135541,121.505276,陽台外推；
11403,華廈,台北市北投區義方街１號三樓,3780,54.78,74.33,15.94,13.9,3,7,有,4,2,2,25.140713,121.502615,
11403,大樓,台北市北投區大同街３２號十四樓,5720,112.27,57.96,8.5,1.8,14,18,有,3,2,2,25.131908,121.500324,
11403,華廈,台北市北投區中和街４０號五樓之２９,410,41.82,9.8,1.35,45.6,5,8,無,1,0,1,25.138261,121.502439,其他增建；
11403,大樓,台北市北投區北投路一段７７號四樓,2310,86.02,26.85,3.86,18,4,11,無,3,2,2,25.128283,121.500121,陽台外推；
11403,大樓,台北市北投區大同街３６號九樓,4470,106.11,49.06,6.92,1.8,9,18,有,3,2,2,25.131676,121.500562,
11403,大樓,台北市北投區大興街７７號二十五樓,4460,76.18,70.75,4.64,1.3,25,27,有,4,2,2,25.130959,121.501629,114年3月25日更名，登記名義人由妻更名給夫預售屋、或土地及建物分件登記案件；
11403,華廈,台北市北投區光明路２２６號九樓之９,1305,38.44,33.95,4.46,48.3,9,10,無,5,2,2,25.136582,121.50414,親友、員工、共有人或其他特殊關係間之交易；
11403,大樓,台北市北投區中和街２０巷２號五樓之１８,900,82.1,10.96,1.44,19.8,5,13,無,1,1,1,25.138581,121.504426,陽台外推；夾層；其他增建；
11403,大樓,台北市北投區大同街３２號十一樓,5500,108.09,57.96,8.5,1.8,11,18,有,3,2,2,25.131908,121.500324,
11403,公寓,台北市北投區大同街１２５巷１６號四樓,900,40.53,22.2,8.74,47.8,4,4,無,2,2,1,25.134808,121.498104,頂樓加蓋:2房1廳1衛頂樓加蓋；
11403,公寓,台北市北投區溫泉路６８之９號四樓,910,37.98,23.96,8.09,52.8,4,4,無,3,1,1,25.134939,121.505005,
11403,華廈,台北市北投區奇岩路２４１巷７弄１８號五樓,3500,51.46,71.85,37.48,6.3,5,5,有,4,2,2,25.129377,121.510295,
11403,大樓,台北市北投區光明路２００號三樓之７,940,71.96,16.71,1.36,21,3,14,有,1,1,1,25.136035,121.503497,陽台外推；夾層；
11403,大樓,台北市北投區大同街３０號十樓,4000,102.87,46.53,6.41,1.8,10,18,有,2,2,2,25.132024,121.500206,
11403,大樓,台北市北投區中央南路二段１２之２０號四樓,1260,69.23,24.27,2.43,10.6,4,19,有,1,1,1,25.126953,121.499709,夾層；
11403,華廈,台北市北投區清江路９１巷２２號四樓,1515,50.04,30.27,5.84,1.3,4,10,無,3,2,2,25.129765,121.502249,
11403,華廈,台北市北投區清江路９１巷２０號八樓,1225,50.06,24.47,4.73,1.3,8,10,無,2,2,1,25.129892,121.502278,
11403,華廈,台北市北投區三合街一段３６巷１９號三樓,6680,81.54,100.86,15.74,9.9,3,9,有,3,2,3,25.12823,121.504675,
11403,華廈,台北市北投區清江路９１巷２０號四樓,1225,50.06,24.47,4.73,1.3,4,10,無,2,2,1,25.129892,121.502278,
11403,公寓,台北市北投區大業路４７８號一樓,2800,89.49,31.29,9.15,46.7,1,5,無,無隔間,0,0,25.132279,121.496113,
11403,華廈,台北市北投區奇岩路２４１巷７弄３８號四樓,3808,52.66,76.25,40.08,6.3,4,5,有,4,2,2,25.129622,121.509783,
11403,大樓,台北市北投區大同街３８號五樓,2550,103.13,24.73,4.38,1.8,5,18,無,2,1,1,25.13156,121.50068,
11403,華廈,台北市北投區文化三路１１４號二樓,1868,43.2,43.24,13.78,40,2,7,無,3,2,2,25.139202,121.498632,陽台外推；
11403,華廈,台北市北投區溫泉路６５巷９之１號二樓,1922,58.56,32.82,7.58,25.7,2,7,有,2,2,1,25.135501,121.504058,其他增建；
11403,華廈,台北市北投區清江路９１巷２２號二樓,1700,50.12,35.45,5.84,1.3,2,10,有,3,2,2,25.129765,121.502249,
11403,華廈,台北市北投區溫泉路５９號七樓,3070,53.82,57.05,14.75,31.6,7,8,有,3,2,2,25.135076,121.50448,其他增建；
11403,大樓,台北市北投區大同街２０號四樓,2835,102.32,34.77,4.39,1.8,4,18,有,2,1,1,25.132606,121.499613,
11403,大樓,台北市北投區大同街３０號四樓,3850,98.45,46.2,6.41,1.8,4,18,有,2,2,2,25.132024,121.500206,
11403,華廈,台北市北投區公路１６１巷２９之２號,866,55.82,19.96,6.6,10.3,1,5,有,1,1,1,25.130021,121.506821,陽台外推；其他增建；
11403,華廈,台北市北投區三合街一段１１７巷７８號三樓,2500,38.48,64.96,10.16,5.8,3,9,有,3,1,2,25.124681,121.504666,親友、員工、共有人或其他特殊關係間之交易；
11403,大樓,台北市北投區大同街２０號十樓,2958,107.5,34.5,4.39,1.8,10,18,有,2,2,1,25.132606,121.499613,
11403,大樓,台北市北投區中央南路二段１２之３號二樓,1110,55.38,27.06,2.8,10.6,2,19,有,無隔間,0,0,25.125787,121.500533,
11403,大樓,台北市北投區大業路３８８號十五樓,1766,86.98,20.3,2.28,1.3,15,15,無,2,1,1,25.129839,121.49726,
11403,大樓,台北市北投區中和街２０巷２號五樓之１５,897,77.91,11.51,1.5,19.8,5,13,無,1,1,1,25.138581,121.504426,
