成交年月,型式,地址,成交總價(萬),單價(萬/坪),建物坪數,土地坪數,屋齡,樓層,總樓層,車位,房,廳,衛,lat,lon,備註
11501,公寓,台北市士林區士商路４０巷１０號,980.25,63.03,15.55,5.27,46.8,1,4,無,無隔間,0,0,25.089984,121.520077,親友、員工、共有人或其他特殊關係間之交易；
11501,大樓,台北市士林區大南路３３９號,3880,72.5,58.04,8.97,18.3,1,15,有,4,2,3,25.08852,121.516271,夾層；其他增建；
11501,華廈,台北市士林區文林路１０２號二樓之１０,548,86.18,6.36,0.9,31.3,2,6,無,無隔間,0,0,25.087837,121.526405,含租約；
11412,大樓,台北市士林區基河路１６號七樓之３,2525,155.27,16.26,4.51,21.3,7,11,無,2,2,1,25.087202,121.52474,夾層；其他增建；
11412,大樓,台北市士林區後港街１６０號,1788,55.31,32.33,7.87,28.6,1,12,無,3,2,2,25.087171,121.520489,親友、員工、共有人或其他特殊關係間之交易；
11412,華廈,台北市士林區華齡街７３號三樓,3450,68.25,50.55,10.26,42.8,3,7,無,4,2,2,25.084937,121.519186,陽台外推；其他增建；
11412,公寓,台北市士林區大南路３１０號二樓,1880,61.76,30.44,11.19,54.8,2,3,無,3,2,2,25.088892,121.518782,其他增建；
11412,華廈,台北市士林區福壽街５６號二樓,1930,78.62,24.55,4.48,11.5,2,7,無,2,1,1,25.096707,121.525514,夾層；
11412,公寓,台北市士林區通河東街一段１２４巷２４號四樓,680,23.46,28.99,8.23,45.2,4,5,無,3,2,1,25.08647,121.51717,親友、員工、共有人或其他特殊關係間之交易；
11412,公寓,台北市士林區承德路四段８０巷１８號,2450,73,33.56,9.64,47.3,1,5,無,3,2,2,25.082696,121.52224,其他增建：壹樓空地增建、平台外移。其他增建；
11412,公寓,台北市士林區福港街３７巷７號三樓,812,49.09,16.54,10.32,54.3,3,4,無,3,2,2,25.090988,121.518627,親友、員工、共有人或其他特殊關係間之交易；
11412,公寓,台北市士林區小西街５８之１號四樓,730,32.99,22.13,9.53,52.9,4,4,無,4,0,3,25.090157,121.523826,親友、員工、共有人或其他特殊關係間之交易；含租約；
11412,公寓,台北市士林區中正路３４９巷４號三樓,2410,79.58,30.28,9.38,45.1,3,5,無,3,2,2,25.093999,121.522347,陽台加窗。其他增建；
11412,大樓,台北市士林區中正路４９７號九樓,3120,72.14,43.25,5.51,39.3,9,16,無,3,2,2,25.091998,121.51826,其他增建；
11411,公寓,台北市士林區華聲街４６號二樓,1180,67.3,17.53,6.35,56.7,2,4,無,3,1,1,25.095627,121.521953,
11411,公寓,台北市士林區天母東路１０５巷５６號二樓,1520,38.98,38.99,14.54,46.8,2,5,無,4,2,2,25.092897,121.519771,陽台外推；其他增建；
11411,公寓,台北市士林區前港街５８巷１弄１號,1720,60.78,28.3,6.41,45.8,1,5,無,3,2,1,25.084678,121.520949,
11411,華廈,台北市士林區後街２１巷１９號三樓,1780,82.34,21.62,4.42,11.8,3,7,有,1,1,1,25.098539,121.524837,
11411,公寓,台北市士林區大南路３２４號三樓,1590,71.42,22.26,15.79,53.6,3,3,無,3,1,1,25.089015,121.518095,頂樓加蓋；
11411,公寓,台北市士林區承德路四段８０巷５０號三樓,2550,59.38,42.94,11.59,40.7,3,5,無,3,2,2,25.083134,121.521635,其他增建；
11411,大樓,台北市士林區後港街１３４巷２號十五樓,6666,116.38,65.74,8.38,1.8,15,22,有,2,2,2,25.086972,121.52086,
11411,公寓,台北市士林區中正路２２３巷６０號二樓,1320,114.71,11.51,6.05,62.2,2,2,無,1,2,1,25.093967,121.526471,頂樓加蓋；
11411,公寓,台北市士林區士商路４０巷１０號,326.75,63.02,5.18,1.76,46.8,1,4,無,無隔間,0,0,25.089984,121.520077,親友、員工、共有人或其他特殊關係間之交易；
11411,華廈,台北市士林區文林路１０２之９號,442.9975,141.08,3.14,0.46,31.3,1,6,無,無隔間,0,0,25.087717,121.526451,含租約；
11411,大樓,台北市士林區承德路四段７５之２號二樓,3500,71.97,48.63,8.5,25.8,2,11,有,無隔間,0,0,25.082058,121.523335,其他增建；
11411,公寓,台北市士林區中正路２１２巷４弄５號,3850,104.54,36.83,16.74,53.9,1,3,無,0,3,2,25.09622,121.526528,其他增建；
11411,大樓,台北市士林區士商路１６７號九樓,4900,98.06,57.17,14.79,25.1,9,12,有,3,2,2,25.094613,121.517266,其他增建；
11411,大樓,台北市士林區大南路３２９號三樓,2920,68.77,46.94,7.32,18.3,3,14,有,3,2,2,25.088356,121.517016,
11411,公寓,台北市士林區承德路四段２９２巷１１弄３號二樓,800,23.18,34.51,8.44,42.5,2,5,無,3,2,2,25.08915,121.519426,親友、員工、共有人或其他特殊關係間之交易；
11411,公寓,台北市士林區福港街２５９巷３０號三樓,1350,44.16,30.57,8.55,43.3,3,5,無,3,2,2,25.083996,121.519152,親友、員工、共有人或其他特殊關係間之交易；
11410,大樓,台北市士林區文林路４７０號十樓,1100,64.54,17.04,1.45,1.3,10,13,有,2,2,1,25.095923,121.524636,持分買賣親友、員工、共有人或其他特殊關係間之交易；
11410,公寓,台北市士林區華齡街６８號,910,28.58,31.84,10.34,46,1,5,無,3,2,1,25.084424,121.51964,親友、員工、共有人或其他特殊關係間之交易；
11410,華廈,台北市士林區華齡街７５號七樓,36,20.48,1.76,0.34,42.8,7,7,無,2,1,1,25.085019,121.519257,親友、員工、共有人或其他特殊關係間之交易；
11410,大樓,台北市士林區後港街１３５號五樓之１,2888,63.59,45.41,6.36,16.2,5,14,有,5,2,2,25.085668,121.521543,親友、員工、共有人或其他特殊關係間之交易；
11410,大樓,台北市士林區承德路四段９５號十四樓,6700,89.31,96.05,11.76,23.6,"14,夾層",14,有,3,2,5,25.083349,121.524007,親友、員工、共有人或其他特殊關係間之交易；
11410,公寓,台北市士林區文林路５８７巷１５弄３號二樓,1600,55.75,28.7,8.7,55.7,2,4,無,3,2,1,25.097787,121.522292,陽台外推；
11410,公寓,台北市士林區中正路３９９巷１弄２１號三樓,1718,67.27,25.54,6.96,53.6,3,4,無,2,2,2,25.093642,121.521883,陽台外推；其他增建；
11410,公寓,台北市士林區前港街７６號,1200,53.64,22.37,4.39,44.8,1,5,無,3,2,1,25.084909,121.520011,親友、員工、共有人或其他特殊關係間之交易；
11410,大樓,台北市士林區承德路四段８８號十三樓之５,3800,94.11,52.64,4.47,3.9,13,15,有,3,2,2,25.082487,121.523019,
11410,華廈,台北市士林區福德路３１巷１１號五樓之７,1175,111.43,10.55,2.18,14.2,5,8,無,1,1,1,25.092214,121.525716,夾層；
11410,公寓,台北市士林區華齡街３３號四樓,500,43.1,11.6,4.06,52.3,4,4,無,2,2,1,25.083661,121.519332,親友、員工、共有人或其他特殊關係間之交易；頂樓加蓋；未登記建物；
11410,大樓,台北市士林區基河路３０號十樓之７,1720,110.43,15.58,2.42,27.3,10,13,無,0,2,1,25.087202,121.52474,其他增建；
11410,華廈,台北市士林區福德路３１巷１１號三樓之１１,1188,92.19,12.89,2.26,14.2,3,8,無,1,1,1,25.092214,121.525716,親友、員工、共有人或其他特殊關係間之交易；夾層；
11410,公寓,台北市士林區承德路四段２９２巷１１弄８號五樓,1700,47.06,36.12,11.1,41.8,5,5,無,3,2,1,25.089055,121.519616,頂樓加蓋；其他增建；
11410,公寓,台北市士林區承德路四段２９２巷１１弄６號五樓,1997,50.01,39.93,12.53,41.8,5,5,無,9,2,3,25.089224,121.51971,頂樓加蓋；其他增建；
11410,大樓,台北市士林區美德街１０號,3470,180.62,22.55,4.12,0.6,1,11,有,無隔間,0,0,25.094163,121.52546,
11410,公寓,台北市士林區後街２１巷３４號二樓,1600,43.2,37.04,13.05,46.9,2,4,無,5,2,2,25.098547,121.524886,其他增建；
11410,大樓,台北市士林區中山北路五段５１６號六樓,15700,101.43,179.32,24.09,10.8,6,12,有,3,1,1,25.093252,121.528193,
11409,大樓,台北市士林區華齡街１８５巷６號八樓,4850,95.56,60.76,6.46,17.4,8,15,有,4,2,2,25.087709,121.519356,陽台外推；
11409,大樓,台北市士林區華齡街１８５巷１號十五樓之１,4078,75.41,62.91,7.34,17.6,15,15,有,3,0,2,25.087698,121.519037,陽台外推；
11409,大樓,台北市士林區華齡街１８５巷１號十五樓之２,2950,92.33,41.51,4.24,17.6,15,15,有,1,2,0,25.087698,121.519037,陽台外推；
11409,公寓,台北市士林區大北路７５號,3288,55.8,58.92,8.77,39.2,1,5,無,3,3,2,25.090045,121.524918,其他增建；
11409,大樓,台北市士林區承德路四段１９２號二樓,2890,56,51.61,8.01,40.3,2,11,無,1,1,1,25.087274,121.522243,其他增建；
11409,大樓,台北市士林區基河路２２號二樓之２,5070,84.85,69.9,10.81,17.3,2,18,有,3,2,2,25.083252,121.524262,
11409,大樓,台北市士林區基河路２２號十七樓之１,8980,95.46,115.16,16.9,17.3,"17,18",18,有,4,2,2,25.083252,121.524262,
11409,公寓,台北市士林區大西路８６號一樓,1250,103.69,12.05,4.35,50.5,1,4,無,0,0,1,25.091966,121.524958,親友、員工、共有人或其他特殊關係間之交易；
11409,華廈,台北市士林區福榮街６１號五樓之１,270,69.84,3.86,0.92,28,5,9,無,2,1,1,25.097316,121.526814,親友、員工、共有人或其他特殊關係間之交易；
11409,大樓,台北市士林區福志路１１８號三樓,5800,92.15,70.3,9.92,12.1,3,12,有,3,2,3,25.098583,121.528023,
11409,大樓,台北市士林區中正路３３７號七樓,5999,80.04,74.95,9.05,8.8,7,13,有,3,2,2,25.094504,121.52291,土地價款:49386760元；建物價款:10603240元依土地法第34條之1規定處分
11409,大樓,台北市士林區文林路４７２號十一樓,2668,108.21,33.9,2.88,1.3,11,13,有,無隔間,0,0,25.095941,121.524646,
11409,大樓,台北市士林區基河路３９６巷２號四樓,6500,95.17,85.46,15.58,13.9,4,12,有,4,2,2,25.095393,121.517876,陽台外推；
11409,大樓,台北市士林區承德路四段７９號十樓之１,6308,94.14,67,11.14,18.8,10,14,有,5,2,2,25.082294,121.523359,其他增建；
11409,公寓,台北市士林區華齡街４０巷１弄１號,1250,41.53,30.1,12.02,54.3,3,4,無,4,2,2,25.083748,121.51985,親友、員工、共有人或其他特殊關係間之交易；
11409,華廈,台北市士林區福德路３１巷１１號四樓之１１,1337,103.75,12.89,2.26,14.2,4,8,無,1,1,1,25.092214,121.525716,陽台外推；夾層；其他增建；
11409,大樓,台北市士林區基河路１６之２號六樓之８,3078,105.06,29.3,5.48,21.3,6,11,有,2,2,2,25.087202,121.52474,夾層；其他增建；
11408,大樓,台北市士林區大南路３３５號七樓之１,2900,68.52,48.3,6.94,18.3,7,15,有,3,2,2,25.089046,121.517112,其他增建；
11408,大樓,台北市士林區承德路四段２３３號九樓,1980,75.98,28.9,3.08,16.3,9,11,有,1,2,1,25.088411,121.522126,
11408,公寓,台北市士林區承德路四段２７７巷６０號五樓,1300,45.45,28.6,9.34,45.1,5,5,無,3,1,1,25.091051,121.519329,頂樓加蓋；包含公共設施保留地用地；
11408,大樓,台北市士林區承德路四段８８號十一樓之７,1000,40.49,24.7,1.98,3.9,11,15,有,無隔間,0,0,25.082487,121.523019,親友、員工、共有人或其他特殊關係間之交易；
11408,公寓,台北市士林區承德路四段８０巷４３號三樓,1690,62.99,26.83,7.71,56.6,3,4,無,3,2,1,25.082616,121.521892,
11408,華廈,台北市士林區福港街１９巷５號四樓,3800,69.11,54.99,12.35,20.3,4,8,有,4,2,2,25.091404,121.518489,其他增建；
11408,公寓,台北市士林區福港街１１０巷１弄３號三樓,200,29.94,6.68,2.47,47.6,3,4,無,3,1,1,25.088459,121.517733,買賣建物持分1/4親友、員工、共有人或其他特殊關係間之交易；
11408,公寓,台北市士林區文林路５８７巷９弄４號三樓,1988,68.97,28.83,8.17,55.7,3,4,無,3,2,1,25.097879,121.522659,其他增建；
11408,公寓,台北市士林區承德路四段２９７巷３９號三樓,1041,57.29,18.17,7.16,56.4,3,3,無,3,2,2,25.090589,121.519222,親友、員工、共有人或其他特殊關係間之交易；陽台外推；頂樓加蓋；
11408,華廈,台北市士林區承德路四段１１０號二樓之１,1640,74.88,21.9,2.92,48.8,2,7,無,2,2,1,25.08316,121.523027,其他增建；
11408,大樓,台北市士林區劍潭路１０號,2186,117.94,18.53,2.89,27.3,1,13,無,1,1,1,25.083909,121.524248,夾層；其他增建；
11408,公寓,台北市士林區文昌路１６７號三樓,1828,58.82,31.08,9.76,54.3,3,4,無,3,2,2,25.098117,121.520208,
11408,公寓,台北市士林區大北路３８號三樓之１,970,68.9,14.08,5.48,54.2,3,4,無,3,1,1,25.089905,121.52605,其他增建：天井增建。其他增建；
11408,大樓,台北市士林區基河路１３０號十樓之８,3060,63.05,48.53,7.14,24.4,10,16,有,3,2,1,25.088524,121.52357,鐵鋁窗增建
11408,華廈,台北市士林區承德路四段２１２號九樓,5100,32.7,155.94,31.95,29.6,"9,夾層",9,有,4,2,2,25.088039,121.52178,
11408,公寓,台北市士林區承德路四段８０巷３３號,2500,78.99,31.65,9.6,46.8,1,5,無,3,2,2,25.082002,121.522157,壹樓、平台、地下室增建
11407,大樓,台北市士林區後港街１５０號八樓,4000,62.83,63.66,13.27,28.6,8,12,有,4,2,2,25.087286,121.52092,陽台外推；
11407,大樓,台北市士林區基河路２２號二樓之１,2000,61.32,32.62,4.81,17.3,2,18,有,1,1,1,25.083252,121.524262,親友、員工、共有人或其他特殊關係間之交易；
11407,大樓,台北市士林區基河路４０號六樓之７,920,120.07,7.66,1.21,27.3,6,13,無,0,1,1,25.083806,121.524223,
11407,大樓,台北市士林區基河路３０８號十一樓,3560,126.31,35.31,5.08,2.1,11,19,有,2,2,2,25.093975,121.518828,
11407,公寓,台北市士林區中山北路五段７７７巷７號三樓,900,37.24,24.17,9.5,47,3,4,無,3,1,1,25.099253,121.526141,親友、員工、共有人或其他特殊關係間之交易；
11407,公寓,台北市士林區大南路２８０號三樓,1775,55.68,31.88,7.93,42.3,3,5,無,3,2,2,25.088772,121.519514,陽台外推；
11407,華廈,台北市士林區文林路４９７號五樓,2850,74.44,38.29,6.13,43.7,5,7,無,3,2,2,25.096359,121.523971,其他增建；
11407,公寓,台北市士林區福港街２５９巷１５號五樓,800,46.05,17.37,4.47,43.4,5,5,無,2,2,1,25.084077,121.518511,親友、員工、共有人或其他特殊關係間之交易；陽台外推；頂樓加蓋；
11407,公寓,台北市士林區通河東街一段１２４巷１９號二樓,1950,60.11,32.44,9,45.2,2,5,無,3,2,2,25.086705,121.517121,陽台外推；其他增建；
11407,華廈,台北市士林區社子街２２巷６７號七樓之２,2100,45.63,46.02,10.35,31.6,7,9,有,3,2,2,25.083308,121.520472,
11407,華廈,台北市士林區志成街２２巷１５弄１３號六樓,1000,24.42,40.94,7.4,43.1,6,7,無,3,2,2,25.097409,121.530611,親友、員工、共有人或其他特殊關係間之交易；
11406,公寓,台北市士林區後港街８６號五樓,1700,52.03,32.67,9.42,43.3,5,5,無,5,2,4,25.085872,121.521965,頂樓加蓋；其他增建；
11406,公寓,台北市士林區中正路１０４巷２弄９號四樓,2015,84.7,23.79,7.61,39.5,4,5,無,3,2,1,25.097072,121.529152,
11406,公寓,台北市士林區前街２１巷３０號四樓,1688,70.63,23.9,8.8,46.7,4,4,無,4,3,3,25.09812,121.525188,陽台外推；頂樓加蓋；其他增建；
11406,公寓,台北市士林區小北街４３號二樓,1290,75.62,17.06,6.2,53.8,2,4,無,1,2,1,25.090786,121.524725,陽台外推；其他增建；
11406,大樓,台北市士林區中山北路五段５２８號六樓,15680,102.1,187.79,24.73,10.8,6,12,有,無隔間,0,0,25.093624,121.528222,
11406,公寓,台北市士林區前街７９之１號四樓,500,44.22,11.31,4.01,48.6,4,4,無,3,1,1,25.098272,121.525997,親友、員工、共有人或其他特殊關係間之交易；
11406,公寓,台北市士林區通河東街一段１７６號二樓,918,41.12,22.32,6.84,43.5,2,5,無,3,2,1,25.088442,121.515684,陽台外推；其他增建；
11406,大樓,台北市士林區承德路四段２９４之２號,3650,96.39,37.87,6.05,37.7,1,12,無,1,0,1,25.090054,121.519449,夾層；其他增建；
11406,大樓,台北市士林區承德路四段１７８號二樓,2328,45.11,51.61,8.08,40.3,2,11,無,0,1,2,25.086738,121.522562,親友、員工、共有人或其他特殊關係間之交易；
11406,華廈,台北市士林區大北路４９號三樓,1251.496,38.69,32.35,12.1,57.8,3,3,無,5,3,2,25.089911,121.52572,親友、員工、共有人或其他特殊關係間之交易；
11406,華廈,台北市士林區大北路４９號二樓,1245.826,38.52,32.35,12.1,57.8,2,3,無,3,2,1,25.089911,121.52572,親友、員工、共有人或其他特殊關係間之交易；
11406,華廈,台北市士林區大北路４９號,1245.096,38.49,32.35,12.1,57.8,1,3,無,2,2,1,25.089911,121.52572,親友、員工、共有人或其他特殊關係間之交易；
11406,公寓,台北市士林區華齡街８２號三樓,2412,69.12,34.89,10.83,46.2,3,5,無,3,2,2,25.084756,121.519731,陽台外推；其他增建；
11406,華廈,台北市士林區承德路四段２７７巷３５號九樓之３,3000,85.49,35.09,6.47,15.9,9,9,有,2,2,2,25.0907,121.519462,露臺增建陽台外推；其他增建；
11406,大樓,台北市士林區承德路四段１２４號三樓,3458,92.95,37.2,4.75,41.3,3,12,無,3,2,2,25.087308,121.52261,其他增建；
11406,華廈,台北市士林區福志路１１０號四樓,2920,83.5,34.97,6.42,10.6,4,6,有,2,2,1,25.098682,121.528078,
11406,大樓,台北市士林區中山北路五段７５９號十五樓,8500,102.77,98.37,8.5,1.9,15,17,有,3,2,3,25.099124,121.526736,
11406,公寓,台北市士林區承德路四段２９２巷１１弄８號五樓,1550,42.91,36.12,11.1,41.8,5,5,無,3,2,1,25.089055,121.519616,頂樓加蓋；其他增建；
11406,大樓,台北市士林區文林路５００號九樓之１,2715,106.82,25.42,3.54,13.1,9,13,有,2,2,1,25.096613,121.524305,
11406,公寓,台北市士林區後港街１６２巷１０弄１５號二樓,2025,64.11,31.58,14.22,53.2,2,4,無,4,2,1,25.088115,121.520378,其他增建；
11406,大樓,台北市士林區基河路１２８號五樓之７,855,90.1,9.49,2.48,29.5,5,11,無,1,1,1,25.088524,121.52357,陽台外推；
11405,華廈,台北市士林區中正路２１２巷１２弄２之１號六樓,2400,70.7,33.95,6.69,41.3,6,6,無,3,2,2,25.097408,121.526085,親友、員工、共有人或其他特殊關係間之交易；
11405,華廈,台北市士林區中正路２１２巷１２弄２號六樓,2400,68.87,34.85,6.69,41.3,6,6,無,2,2,2,25.097396,121.526022,親友、員工、共有人或其他特殊關係間之交易；
11405,大樓,台北市士林區中山北路五段５１２號三樓,1000,25.46,39.28,5.28,10.8,3,12,有,無隔間,0,0,25.093168,121.528185,親友、員工、共有人或其他特殊關係間之交易；
11405,公寓,台北市士林區美崙街８２巷１６號二樓,1630,86.35,18.88,13.01,57.3,2,2,無,5,2,2,25.097483,121.521764,陽台外推；頂樓加蓋；其他增建；
11405,大樓,台北市士林區承德路四段１８８號,6000,116.85,51.35,8.27,40.3,1,11,無,0,1,1,25.086921,121.522357,
11405,公寓,台北市士林區通河東街一段１２４巷２７號三樓,1500,54.85,27.35,7.58,45.2,3,5,無,3,2,1,25.086703,121.517226,陽台外推；其他增建；
11405,公寓,台北市士林區大東路１３之４號五樓之１,1950,55.39,35.21,8.59,49.2,5,5,無,3,2,2,25.087462,121.525046,陽台外推；頂樓加蓋；
11405,大樓,台北市士林區後港街１６１號七樓之１,5928,71.24,90.59,12.71,16.2,7,14,有,5,2,3,25.086932,121.521792,
11405,大樓,台北市士林區中山北路五段５５７號四樓,13500,75.3,179.29,16.39,14.4,4,19,有,4,3,4,25.09497,121.527835,出售5個停車位為約定專供出賣人使用之停車位；另有停車位為出賣人與其他區分所有權人共用之停車位列為共用部分之面積
11405,大樓,台北市士林區大南路３３７號六樓之２,2508,77.46,37.54,5.41,18.3,6,15,有,2,2,1,25.088539,121.516554,
11405,大樓,台北市士林區承德路四段２９４之１號十一樓,2650,68.26,38.82,5.1,37.7,11,12,無,3,2,2,25.08933,121.518933,其他增建；
11405,公寓,台北市士林區前街１１５巷９號二樓,1230,73.34,16.77,5.65,57.6,2,3,無,2,2,1,25.098682,121.52554,其他增建；
11405,華廈,台北市士林區承德路四段２３４號三樓,5250,59.15,93.61,17.54,34.8,3,9,有,4,2,3,25.088759,121.521188,11237建號拆價2762萬含一個車位250萬11238建號拆價2488萬陽台外推；其他增建；
11405,大樓,台北市士林區基河路３１６號十三樓,3430,98.66,34.77,4.97,2.1,13,19,有,0,2,2,25.093975,121.518828,
11405,大樓,台北市士林區中山北路五段７５５號二樓,4800,82.49,65.98,6,1.9,2,17,有,3,2,2,25.099026,121.526776,
11405,華廈,台北市士林區福德路３１巷１１號三樓之１８,1070,103.91,10.3,2.13,14.2,3,8,無,1,2,1,25.092214,121.525716,陽台外推；夾層；其他增建；
11405,公寓,台北市士林區大東路１２８號四樓,1900,65.18,29.15,10.44,48.3,4,4,無,4,1,2,25.091757,121.525689,
11405,公寓,台北市士林區華光街１２號,2916,83.46,34.94,20.27,62.3,1,2,無,3,5,4,25.095205,121.523133,臺北市士林區華光街12號1樓號買賣總價為1766萬元整；臺北市士林區華光街12號2樓買賣總價為1150萬元整頂樓加蓋；其他增建；
11405,公寓,台北市士林區文林路５８７巷１號,3000,50.89,58.95,16.53,31.4,1,5,無,5,2,4,25.09812,121.523052,
11405,大樓,台北市士林區大南路３３５號二樓,3080,66.4,46.39,6.6,18.3,2,15,有,3,2,2,25.089046,121.517112,其他增建；
11405,大樓,台北市士林區基河路３０６號十一樓,3528,125.06,35.31,5.08,2.1,11,19,有,1,2,2,25.093975,121.518828,
11404,大樓,台北市士林區後港街１５８之１號八樓,3200,67.94,47.1,8.76,28.6,8,12,有,3,2,2,25.087324,121.520713,其他增建；
11404,公寓,台北市士林區大南路２８５巷９弄７號二樓,1320,69.13,19.09,7.77,55.5,2,3,無,2,1,1,25.088382,121.519317,
11404,公寓,台北市士林區美崙街８２巷１２號三樓,400,41.52,9.63,4.49,57.3,3,3,無,2,1,1,25.097361,121.521793,親友、員工、共有人或其他特殊關係間之交易；
11404,公寓,台北市士林區前港街２６巷９號,278.5,51.84,5.37,3.49,53.3,1,3,無,2,2,1,25.084138,121.522256,親友、員工、共有人或其他特殊關係間之交易；
11404,大樓,台北市士林區大南路３２７號二樓之１,3200,75.33,48.38,7.32,18.3,2,14,有,3,2,2,25.088889,121.518064,其他增建；
11404,公寓,台北市士林區華齡街４０巷１６號四樓,844,23.76,35.52,10.16,41.8,4,5,無,3,1,2,25.083989,121.520574,親友、員工、共有人或其他特殊關係間之交易；
11404,大樓,台北市士林區中山北路五段５０８號五樓,23104,105.01,254.25,34.27,10.8,5,12,有,無隔間,0,0,25.093002,121.528161,毛胚屋；
11404,大樓,台北市士林區中山北路五段５０８號六樓,23454,105.01,263.82,34.6,10.8,6,12,有,無隔間,0,0,25.093002,121.528161,毛胚屋；
11404,大樓,台北市士林區中山北路五段５０２號五樓,14812,105,159.78,21.65,10.8,5,12,有,無隔間,0,0,25.09283,121.528146,毛胚屋；
11404,大樓,台北市士林區基河路１６號九樓之３,2800,150.65,27.68,4.69,21.3,9,11,有,0,2,1,25.087202,121.52474,其他增建；
11404,大樓,台北市士林區文林路５００號八樓,2600,107.88,24.1,3.35,13.1,8,13,有,4,1,1,25.096613,121.524305,夾層；其他增建；
11404,大樓,台北市士林區承德路四段３１７號十二樓,2750,56.03,49.08,7.11,40.7,12,12,無,1,0,2,25.090206,121.517994,
11404,公寓,台北市士林區承德路四段６８號,600,51.11,11.74,3.03,49.5,1,5,無,無隔間,0,0,25.081864,121.522702,親友、員工、共有人或其他特殊關係間之交易；其他增建；
11404,公寓,台北市士林區後港街２８巷１號四樓,1410,50.27,28.05,6.85,42.7,4,5,無,5,2,2,25.083072,121.522699,天井加蓋親友、員工、共有人或其他特殊關係間之交易；其他增建；
11404,公寓,台北市士林區中山北路五段５２７號三樓,2060,78.17,26.35,10.21,48.8,3,4,無,3,2,2,25.094079,121.52784,親友、員工、共有人或其他特殊關係間之交易；
11404,公寓,台北市士林區承德路四段８０巷５７之２號五樓,1538,59.17,25.99,7.48,40.6,5,5,無,3,2,1,25.08309,121.521294,其他增建；
11404,公寓,台北市士林區大東路１２０號四樓,1250,78.1,16.01,6.05,54.9,4,4,無,4,1,2,25.091562,121.525591,頂樓加蓋；其他增建；
11404,公寓,台北市士林區承德路四段８０巷５５之１號二樓,2200,62.16,35.39,10.4,40.6,2,5,無,2,2,1,25.083021,121.521546,
11404,公寓,台北市士林區小西街８號三樓,2075.6365,80.76,25.7,10.29,49.4,3,4,無,4,1,1,25.088975,121.523654,甲、乙雙方約定土地增值稅改由甲方負擔，併計入甲方買賣本約標的取得之成本。含土地增值稅或其他稅費196365元；
11404,大樓,台北市士林區承德路四段８８號十四樓之１,2208,111.44,19.81,2.41,3.9,14,15,無,1,1,1,25.082487,121.523019,
11404,大樓,台北市士林區士商路１２５號八樓之１,5000,110.76,45.14,7.68,18.1,8,12,無,4,2,2,25.093056,121.518437,親友、員工、共有人或其他特殊關係間之交易；
11404,大樓,台北市士林區劍潭路７１號十一樓之２,2747,92.93,42.06,6.59,19.2,11,14,有,2,2,1,25.083541,121.520767,其他增建；
11404,大樓,台北市士林區華齡街１８５巷１號二樓,3800,90.48,51.71,5.76,17.6,2,15,有,3,2,2,25.087698,121.519037,其他增建；
11404,華廈,台北市士林區幸福街５巷２２號四樓之２,900,78.29,11.5,4.05,30.2,4,5,無,1,1,1,25.097086,121.528213,陽台外推；夾層；其他增建；
11404,大樓,台北市士林區基河路１３０號十一樓之１０,4000,68.47,58.42,8.7,24.4,11,16,有,3,2,2,25.088524,121.52357,
11403,公寓,台北市士林區美崙街７０號三樓,1200,79.43,15.11,6.66,54.8,3,3,無,1,2,1,25.097169,121.522083,陽台外推；頂樓加蓋；
11403,公寓,台北市士林區大北路９號四樓,1188,55.16,21.54,4.84,47,4,5,無,3,1,1,25.089635,121.526631,鐵鋁窗增建陽台外推；其他增建；
11403,大樓,台北市士林區後港街１３４巷２號七樓,6668.05,95,70.19,10.32,1.8,7,22,無,4,2,2,25.086972,121.52086,
11403,公寓,台北市士林區華齡街４０巷６號,350,46.24,7.57,2.21,48.3,1,4,無,2,2,1,25.083909,121.520093,親友、員工、共有人或其他特殊關係間之交易；
11403,大樓,台北市士林區劍潭路１２號九樓之６,1910,95.29,20.04,3.17,17.3,9,14,無,1,1,1,25.08416,121.522878,
11403,公寓,台北市士林區大南路４２８巷３６號,1075,67.54,15.92,10.89,59.1,1,2,無,2,1,1,25.089711,121.517263,
11403,公寓,台北市士林區文林路５９４巷２８號四樓,1730,66.28,26.1,7.5,41.1,4,5,無,3,2,2,25.098884,121.524589,天井其他增建；
11403,華廈,台北市士林區承德路四段２７７巷３５號八樓之１,1920,77.49,24.77,4.34,15.9,8,9,有,1,1,1,25.0907,121.519462,陽台外推；其他增建；
11403,公寓,台北市士林區華齡街５３號,2880,99.02,29.09,9.61,46,1,5,無,0,1,2,25.084318,121.519305,其他增建；
11403,華廈,台北市士林區福德路７７號四樓之１,860,70.15,12.26,3.85,26.3,4,5,無,1,1,1,25.092499,121.521712,
11403,公寓,台北市士林區承德路四段８０巷２９號三樓,1860,69.47,26.77,8.26,46.8,3,5,無,1,2,1,25.082317,121.522407,鐵鋁窗增建陽台外推；其他增建；
11403,大樓,台北市士林區中正路４２８號四樓,3700,75.9,48.75,7.11,26.1,4,17,無,3,2,2,25.093122,121.519186,陽台及建物向外擴大加蓋，含共用部份停車位1個，依管委會每二年抽簽決定號次。陽台外推；其他增建；
11403,大樓,台北市士林區承德路四段８５號十二樓,6935,68.96,100.57,11.85,23.6,12,14,有,3,2,2,25.083139,121.52374,
11403,公寓,台北市士林區士商路５２號五樓,2030,59.45,34.15,9.39,39.6,5,5,無,3,2,2,25.090477,121.520042,陽台外推；頂樓加蓋；
11403,公寓,台北市士林區承德路四段８０巷４０號四樓,1860,65.27,28.5,7.85,47.3,4,5,無,4,2,2,25.083278,121.522193,陽台外推；
11403,大樓,台北市士林區福志路１１８號十一樓,6650,102.27,80.71,10.12,12.1,11,12,有,3,2,3,25.098583,121.528023,其他增建；
11403,大樓,台北市士林區士商路１５９號二樓,5100,92.01,64.06,16.52,25.1,2,12,有,4,2,2,25.094549,121.517472,其他增建；
11403,華廈,台北市士林區文林路４７６號三樓,2240,65.16,34.38,6.41,35.9,3,8,無,2,2,2,25.096027,121.524447,
11403,公寓,台北市士林區前港街１０２號五樓,450,52.21,8.62,2.36,41,5,5,無,3,1,2,25.085081,121.518769,頂樓加蓋；
11403,華廈,台北市士林區基河路２１４號三樓,3518,65.1,54.04,12.25,30.6,3,9,有,3,2,2,25.090339,121.521191,其他增建；
11403,公寓,台北市士林區後港街２０巷５號四樓,1590,62.94,25.26,6.95,45.6,4,5,無,2,2,2,25.082856,121.522518,陽台外推；其他增建；
11403,公寓,台北市士林區前港街８４號二樓,650,26.31,24.7,6.66,44.7,2,5,無,2,1,1,25.084963,121.519719,親友、員工、共有人或其他特殊關係間之交易；
11403,大樓,台北市士林區基河路１２８號八樓之７,800,84.2,9.5,2.48,29.5,8,11,無,1,1,1,25.088524,121.52357,
