成交年月,型式,地址,成交總價(萬),單價(萬/坪),建物坪數,土地坪數,屋齡,樓層,總樓層,車位,房,廳,衛,lat,lon,備註
11501,大樓,台北市大同區民權西路１５３號六樓之３,2828,110.49,25.59,2.21,2,6,15,無,2,2,1,25.063252,121.516547,
11501,大樓,台北市大同區昌吉街２６號,1000,113.95,8.78,1.43,14.2,1,14,無,2,1,1,25.065792,121.517093,親友、員工、共有人或其他特殊關係間之交易；夾層；
11501,大樓,台北市大同區民權西路１５３號三樓之３,3288,110.78,37.28,2.37,2,3,15,有,2,2,1,25.063252,121.516547,
11501,公寓,台北市大同區民族西路７６巷２弄１９號二樓,2088,57.86,36.09,9.53,42.2,2,5,有,3,2,2,25.068142,121.516911,防空避難室兼停車空間（國宅）車位使用權陽台外推；其他增建；
11501,大樓,台北市大同區承德路二段１４５號三樓,1630,105.39,15.47,1.71,1.3,3,15,無,1,0,1,25.057819,121.518477,
11501,華廈,台北市大同區歸綏街７８之９號,550,51.1,10.76,2.51,31.3,1,7,有,2,1,1,25.058373,121.516949,親友、員工、共有人或其他特殊關係間之交易；
11501,公寓,台北市大同區民權西路２４５巷３９號,1985,63.17,31.42,11.19,58.3,1,4,無,3,3,3,25.064267,121.510404,親友、員工、共有人或其他特殊關係間之交易；其他增建；未登記建物；
11412,大樓,台北市大同區大龍街９１巷１２號十樓之１１,1608,94.75,16.97,2.4,3.9,10,13,無,1,1,1,25.067224,121.517024,
11412,公寓,台北市大同區昌吉街１１０巷９號四樓,1500,53.76,27.9,11.27,52.4,4,4,無,3,2,1,25.065492,121.514765,頂樓加蓋；其他增建；
11412,公寓,台北市大同區錦西街４８號二樓,1836,74.78,24.55,6.72,49.3,2,5,無,3,2,1,25.060179,121.520122,陽台外推；其他增建；
11412,公寓,台北市大同區大龍街３００巷５號四樓,1050,52.81,19.88,7.03,42.9,4,4,無,2,1,1,25.07148,121.515501,頂樓加蓋；其他增建；
11412,公寓,台北市大同區哈密街５９巷３１弄５之３號,1280,72.65,17.62,11.8,0,1,2,無,3,2,1,25.07508,121.516141,其他增建；
11411,公寓,台北市大同區重慶北路三段２９５巷２１弄８號,3500,79.84,43.84,9.92,42.2,1,5,無,5,2,2,25.073873,121.514741,其他增建；
11411,公寓,台北市大同區民權西路２４５巷１８號,3.5666,0.66,5.42,0,54.3,1,4,無,3,2,1,25.063705,121.510295,建物坐落地號：橋北段三小段820地號；親友、員工、共有人或其他特殊關係間之交易；
11411,華廈,台北市大同區甘州街１４號八樓,1360,60.08,22.64,3.22,34.3,8,9,無,3,2,2,25.058507,121.51277,
11411,公寓,台北市大同區雙連街５３巷６號四樓,550,29.76,18.48,6.11,57.8,4,4,無,2,2,1,25.059193,121.519087,親友、員工、共有人或其他特殊關係間之交易；
11411,大樓,台北市大同區歸綏街１８５號七樓、七樓之１,1450,67.17,21.59,1.95,41.3,7,12,無,2,1,2,25.058259,121.512741,陽台外推；其他增建；
11411,公寓,台北市大同區環河北路二段３７號四樓,100,32.86,3.04,0.76,46.3,4,5,無,1,1,1,25.06451,121.508901,親友、員工、共有人或其他特殊關係間之交易；其他增建；
11411,公寓,台北市大同區重慶北路三段９巷３１號三樓,680,26.81,25.36,8.7,53.8,3,4,無,3,2,1,25.064056,121.515362,親友、員工、共有人或其他特殊關係間之交易；
11411,公寓,台北市大同區重慶北路三段１５２巷１７號四樓,1200,67.53,17.77,5.2,41.8,4,5,無,2,1,1,25.068171,121.512939,
11411,公寓,台北市大同區伊寧街７５巷３號,530,39.75,13.33,4.42,48.9,1,4,無,0,1,1,25.064835,121.510409,
11411,大樓,台北市大同區民生西路１７１巷３號十二樓之１,1958,76.39,25.63,2.27,20.9,12,14,有,2,2,1,25.057441,121.517213,
11411,華廈,台北市大同區承德路三段１２２巷１２號二樓,1760,78.49,20.96,3.76,5.6,2,7,有,1,2,1,25.067338,121.517672,
11411,公寓,台北市大同區承德路三段１６９號三樓,1530,66.26,23.09,6.41,49,3,5,無,4,0,4,25.068335,121.518636,
11411,大樓,台北市大同區民權西路１６０巷１８弄８號五樓之３,4768,111.39,49.88,5.67,4.3,5,18,有,3,2,2,25.062166,121.515451,
11411,華廈,台北市大同區涼州街５０號四樓,2600,64.28,40.45,4.72,41.7,4,9,無,無隔間,0,0,25.060618,121.51173,其他增建；
11411,公寓,台北市大同區雙連街７０號,2060,135.6,15.19,6.5,51.7,1,4,無,1,1,1,25.059745,121.518806,其他增建；
11411,華廈,台北市大同區重慶北路三段９巷３號二樓,1080,29.55,36.55,8.32,36.1,2,7,無,3,2,2,25.064424,121.514201,親友、員工、共有人或其他特殊關係間之交易；
11411,公寓,台北市大同區歸綏街９７巷２０號四樓,1780,50.03,35.58,8.33,34.3,4,5,無,3,2,2,25.059433,121.515814,其他增建；
11411,公寓,台北市大同區民權西路２９２巷２２號四樓,1410,44.06,32,7.87,45.3,4,5,無,3,1,1,25.062334,121.510378,陽台外推；其他增建；
11411,華廈,台北市大同區延平北路三段４６號二樓之２,1284,52.16,24.62,4.96,42.9,2,7,無,2,2,1,25.064848,121.510981,親友、員工、共有人或其他特殊關係間之交易；陽台外推；
11411,大樓,台北市大同區承德路二段１９３號十二樓之１,4288,73.74,58.15,8.28,29,"12,夾層",12,有,5,3,3,25.0593,121.518417,親友、員工、共有人或其他特殊關係間之交易；
11411,公寓,台北市大同區延平北路三段６６巷２號,500,44.61,11.21,3.48,53.4,1,4,無,2,2,1,25.065397,121.510734,陽台外推；
11410,大樓,台北市大同區歸綏街１７２號三樓,1360,49.85,27.28,3.11,35.4,3,11,無,1,1,1,25.058149,121.512473,陽台加窗其他增建；
11410,大樓,台北市大同區承德路三段２０８巷６號四樓之８,1888,108.02,17.48,2.69,18.8,4,11,無,2,1,1,25.070577,121.517405,陽台外推；
11410,大樓,台北市大同區歸綏街１６０巷１號七樓之３,840,81.17,10.35,1.48,29.8,7,13,無,1,1,1,25.057509,121.514131,陽台外推；
11410,大樓,台北市大同區重慶北路二段１３５號七樓之５,3388,110.81,35.99,2.41,0.9,7,15,有,3,2,2,25.05816,121.513979,
11410,大樓,台北市大同區重慶北路二段１３５號十二樓之１,2110,116.02,18.19,1.53,0.9,12,15,無,2,2,1,25.05816,121.513979,
11410,大樓,台北市大同區重慶北路二段１３５號十一樓之３,3299,115.03,28.68,2.41,0.9,11,15,無,3,2,2,25.05816,121.513979,
11410,公寓,台北市大同區保安街４９巷３０之３號二樓,1080,63.44,17.02,5.95,0,2,3,無,2,1,1,25.060035,121.511885,陽台外推；頂樓加蓋；夾層；其他增建；
11410,華廈,台北市大同區民族西路２２５巷３弄６號三樓,3680,71.04,51.8,9.37,37.3,3,7,有,4,2,2,25.069233,121.512746,其他增建；
11410,公寓,台北市大同區哈密街５９巷３１弄４２號二樓,892.71,58.5,15.26,5.34,43.5,2,4,無,3,2,1,25.074908,121.516717,親友、員工、共有人或其他特殊關係間之交易；
11410,公寓,台北市大同區迪化街二段１９０巷１９號,287.605,19.18,15,4.52,41.8,1,5,無,2,1,1,25.067817,121.509727,親友、員工、共有人或其他特殊關係間之交易；
11410,大樓,台北市大同區重慶北路二段１３５號十樓,4200,115.23,44.5,2.84,0.9,10,15,有,3,2,2,25.05816,121.513979,
11410,大樓,台北市大同區萬全街１號十樓之６,5400,115.41,59.02,4.45,10.4,10,15,有,3,2,2,25.058644,121.519642,
11410,大樓,台北市大同區承德路二段１４５號十四樓,2330,110.35,22.65,2.11,1.3,14,15,有,1,1,1,25.057819,121.518477,
11410,大樓,台北市大同區承德路三段１１號十樓之１,8060,73.61,111.74,10.04,15.5,10,15,有,4,2,3,25.063772,121.518518,
11410,大樓,台北市大同區承德路三段１１號十二樓,7060,69.51,101.26,8.6,15.5,12,15,有,4,2,3,25.063772,121.518518,
11410,大樓,台北市大同區承德路三段１１號十二樓之１,8120,73.61,111.74,10.04,15.5,12,15,有,4,2,3,25.063772,121.518518,
11410,華廈,台北市大同區民族西路１５８號二樓,2700,67.39,40.06,6.57,20.2,2,9,無,3,2,2,25.068464,121.515469,親友、員工、共有人或其他特殊關係間之交易；
11410,公寓,台北市大同區延平北路三段２２之３號,1180,48.17,24.5,6.81,55.9,4,4,無,1,1,1,25.064017,121.510986,
11410,華廈,台北市大同區重慶北路三段１１３巷５５號六樓之２,2500,57.34,43.6,10.99,35.8,6,7,無,5,2,2,25.067333,121.51524,其他增建；
11410,公寓,台北市大同區環河北路二段２３７巷１２號二樓,1530,50.38,30.37,13.72,51.5,2,4,無,4,2,2,25.070636,121.510286,其他增建；
11410,大樓,台北市大同區重慶北路二段１３５號十樓之５,3480,114.02,35.99,2.41,0.9,10,15,有,3,2,2,25.05816,121.513979,
11410,大樓,台北市大同區承德路三段８３號六樓,2888,80.53,35.86,6.23,28.1,6,11,無,3,1,1,25.065714,121.518605,
11410,公寓,台北市大同區民權西路２７０之１號三樓,1410,59.32,23.77,7.22,48.1,3,5,無,3,2,1,25.062741,121.511918,陽台外推；
11410,公寓,台北市大同區哈密街４５巷１弄１４號四樓,1320,67.65,19.51,6.88,51.3,4,4,無,2,2,2,25.073972,121.518059,陽台外推；其他增建；
11410,大樓,台北市大同區承德路二段１９３號六樓,5668,63.41,89.38,17.65,29,6,12,有,5,2,2,25.0593,121.518417,陽台外推；
11410,公寓,台北市大同區大龍街２３５巷２號三樓,850,56.86,14.95,5.14,53.3,3,4,無,2,1,1,25.070918,121.516183,陽台增建後外推其他增建；
11410,公寓,台北市大同區延平北路二段２４７巷１８之１號,2980,99.16,30.05,7.81,48.5,1,5,無,無隔間,0,0,25.062231,121.512049,平台外推、天井增建
11410,華廈,台北市大同區哈密街７０巷１弄２３號二樓,3300,80.72,40.88,12.36,16.7,2,7,無,3,2,2,25.072981,121.518132,
11410,公寓,台北市大同區庫倫街１３巷３弄１６號四樓,1310,79.58,16.46,6.05,55.8,4,4,無,2,2,1,25.072625,121.517749,頂樓加蓋；其他增建；
11410,大樓,台北市大同區重慶北路二段１９６號三樓,424.66,22.96,18.49,1.52,41.3,3,12,無,1,1,1,25.060421,121.513724,親友、員工、共有人或其他特殊關係間之交易；
11410,大樓,台北市大同區延平北路三段３之２號十樓,1880,62.12,30.27,2.82,39.7,10,12,無,3,2,1,25.063484,121.511273,陽台外推；
11409,大樓,台北市大同區延平北路二段２３８號四樓之２,3237,46.21,70.05,8.01,42.8,4,11,無,3,2,3,25.060136,121.511522,
11409,公寓,台北市大同區承德路三段１２２巷８號二樓,250,18.46,13.54,3.87,49.4,2,5,無,2,1,1,25.067339,121.517766,親友、員工、共有人或其他特殊關係間之交易；陽台外推；
11409,大樓,台北市大同區重慶北路二段１３５號九樓,4085,113,43.52,2.84,0.9,9,15,有,3,2,2,25.05816,121.513979,
11409,華廈,台北市大同區重慶北路三段１９１巷９號五樓,2618,59.07,44.32,8.87,44.3,5,7,無,3,2,2,25.069482,121.514637,陽台外推；
11409,公寓,台北市大同區承德路三段８５巷１３號二樓,2288,68.07,33.61,9.98,51.2,2,4,無,3,2,1,25.0661,121.519125,陽台外推；其他增建；
11409,華廈,台北市大同區重慶北路三段１９１巷１４號三樓,2460,62.87,39.13,6.65,44.8,3,7,無,3,2,2,25.069348,121.514682,陽台外推；其他增建；
11409,華廈,台北市大同區歸綏街２０９號六樓之５,1429,71.08,20.1,2.68,30.5,6,10,無,2,2,1,25.058262,121.512421,增建項目：陽台凸窗其他增建；
11409,華廈,台北市大同區歸綏街９７巷４號,2850,14.67,194.21,21.24,30.4,地下層,7,無,3,4,2,25.059105,121.515942,陽台外推；其他增建；
11409,華廈,台北市大同區民族西路７６巷２弄２號,2450,97.75,25.07,5.63,31.5,1,9,無,0,1,1,25.068092,121.51715,其他增建；
11409,大樓,台北市大同區重慶北路二段１３５號六樓之５,3360,109.83,35.99,2.41,0.9,6,15,有,3,2,2,25.05816,121.513979,
11409,公寓,台北市大同區大龍街８５巷３號三樓之３,300,44.96,6.67,3.35,60.8,3,5,無,2,1,1,25.06652,121.516845,親友、員工、共有人或其他特殊關係間之交易；
11409,華廈,台北市大同區承德路三段２１０號,200000,66.41,3011.78,448.31,36.3,地下層,7,有,92,10,16,25.070586,121.518141,
11409,華廈,台北市大同區民族西路２２５巷７弄４號六樓,3150,61.2,51.47,9.37,37.3,6,7,有,4,2,2,25.069393,121.51252,陽台外推；
11409,華廈,台北市大同區歸綏街１８１號八樓之２,520,63.79,8.15,0.77,46.5,8,10,無,1,1,1,25.058262,121.512421,其他增建；
11409,華廈,台北市大同區重慶北路三段１１３巷５５號五樓之２,2650,60.17,44.04,10.99,35.8,5,7,無,4,2,2,25.067333,121.51524,陽台外推；其他增建；
11409,公寓,台北市大同區延平北路四段１７９巷１０號四樓,1100,37.01,29.72,9.08,56.7,4,4,無,2,2,1,25.073552,121.511899,親友、員工、共有人或其他特殊關係間之交易；頂樓加蓋；
11409,公寓,台北市大同區哈密街５９巷２１弄３９號,465.92,69.98,6.66,2.67,55.8,1,4,無,3,2,1,25.074675,121.516746,買賣?方以用印日114/12/15日為公契立約日親友、員工、共有人或其他特殊關係間之交易；
11409,公寓,台北市大同區雙連街５３巷１８號二樓,600,28.94,20.73,6.66,59.4,2,4,無,2,1,1,25.059231,121.51938,親友、員工、共有人或其他特殊關係間之交易；其他增建；
11409,大樓,台北市大同區延平北路三段３之１號七樓,2400,61.89,38.78,3.75,39.7,7,12,無,3,2,2,25.063449,121.511274,陽台外推；其他增建；
11409,大樓,台北市大同區民權西路１５３號七樓之３,3000,109.39,35.46,2.21,2,7,15,有,2,1,1,25.063252,121.516547,
11409,華廈,台北市大同區歸綏街１８１號六樓之２,538,62.82,8.56,0.8,46.5,6,10,無,無隔間,0,0,25.058262,121.512421,
11409,大樓,台北市大同區民權西路１５３號十四樓之７,1550,130.25,11.9,1.03,2,14,15,無,1,1,1,25.063252,121.516547,
11408,華廈,台北市大同區歸綏街１８１號九樓之２,540,66.24,8.15,0.77,46.5,9,10,無,1,1,1,25.058262,121.512421,鐵鋁窗外推增建
11408,公寓,台北市大同區承德路三段１６６號三樓,1500,64.79,23.15,6.96,51.5,3,4,無,3,2,1,25.068902,121.518189,陽台外推；
11408,公寓,台北市大同區大龍街８５巷３號三樓之１,670,68.83,9.73,5.02,60.8,3,5,無,1,1,1,25.06652,121.516845,
11408,大樓,台北市大同區民權西路２３７之８號十七樓之１,2000,104.2,19.19,1.82,6.8,17,19,無,1,1,1,25.06369,121.512078,
11408,公寓,台北市大同區萬全街１０３巷２５號,91,57.74,1.58,0.35,33.8,1,6,無,無隔間,0,0,25.058465,121.516393,
11408,大樓,台北市大同區哈密街２３巷７號五樓,3300,60,55,15.36,18.8,5,12,無,3,2,2,25.074352,121.518716,
11408,大樓,台北市大同區涼州街２號六樓之３,5540,89.51,70.32,7.72,15,6,15,有,4,2,3,25.060861,121.513793,陽台外推；
11408,公寓,台北市大同區哈密街２３巷２６號,2288,81.72,28,10.13,53.9,1,4,無,0,2,1,25.074379,121.517833,其他增建；
11408,華廈,台北市大同區庫倫街４８之４號三樓,3100,71.53,43.34,8.29,37.3,3,8,無,3,2,2,25.071809,121.518284,陽台外推；
11408,華廈,台北市大同區重慶北路三段１９１巷３號三樓,2660,58.91,45.15,8.95,44.3,3,7,無,4,0,4,25.06956,121.514611,
11408,大樓,台北市大同區民權西路２７９號三樓之５,1021,73.41,13.91,2.42,21.4,3,11,無,1,1,1,25.063497,121.509697,夾層；
11408,公寓,台北市大同區迪化街二段１４６巷２８號三樓,800,32.96,24.27,10.29,45.3,3,4,無,3,2,2,25.068037,121.50963,親友、員工、共有人或其他特殊關係間之交易；
11408,公寓,台北市大同區敦煌路２４巷１２弄１號二樓,1400,59.41,23.56,10.06,53.6,2,4,無,4,2,1,25.074567,121.519107,其他增建；
11408,公寓,台北市大同區昌吉街６１巷１１號三樓之１,575,51.22,11.23,4.3,50.7,3,5,無,1,1,1,25.066652,121.514926,其他增建；
11408,華廈,台北市大同區承德路三段８巷２號六樓,700,19.08,36.68,8.77,39.8,6,6,無,3,2,1,25.063565,121.517282,親友、員工、共有人或其他特殊關係間之交易；
11408,公寓,台北市大同區酒泉街５０巷１０號二樓,1788,52.69,33.93,12.18,53.8,2,4,無,3,2,2,25.071177,121.516558,
11408,大樓,台北市大同區民權西路２０５號六樓,1313,67.56,19.44,2.14,5.3,6,14,無,1,1,1,25.06317,121.515216,親友、員工、共有人或其他特殊關係間之交易；
11408,大樓,台北市大同區民權西路９１號十樓之８,792,87.48,9.05,0.74,45.8,10,12,無,1,0,1,25.063105,121.517889,
11408,大樓,台北市大同區雙連街３號七樓,2688,100.9,26.64,3.01,1.3,7,11,有,2,1,1,25.057889,121.519195,
11408,大樓,台北市大同區重慶北路二段１３５號六樓之１,2010,110.52,18.19,1.53,0.9,6,15,無,2,1,1,25.05816,121.513979,
11408,大樓,台北市大同區延平北路二段２５５號九樓之１１,2450,79.02,31.01,3.44,46.3,9,12,無,3,2,2,25.062392,121.511339,其他增建；
11408,公寓,台北市大同區迪化街二段１９０巷１５號三樓,1500,52.6,28.52,7.08,47.3,3,5,無,2,2,1,25.067881,121.50988,陽台外推；其他增建；
11408,大樓,台北市大同區延平北路二段２４２號十一樓之１,880,74.34,11.84,1.37,43.5,11,11,無,1,0,1,25.062403,121.511363,其他增建；
11408,華廈,台北市大同區歸綏街９７巷８號七樓之１,1500,78.02,19.23,3.07,30.4,7,7,無,2,1,1,25.059082,121.516089,陽台外推；其他增建；
11408,大樓,台北市大同區重慶北路二段１３５號七樓之１,2019,111.02,18.19,1.53,0.9,7,15,無,2,1,1,25.05816,121.513979,
11408,大樓,台北市大同區重慶北路二段１３５號九樓之２,2261,113.02,25.46,1.53,0.9,9,15,有,2,2,1,25.05816,121.513979,
11408,大樓,台北市大同區民生西路２２５號五樓之１,2700,99.96,26.55,2.38,8.3,5,12,有,2,1,1,25.057194,121.515992,機房變室內使用其他增建；
11407,大樓,台北市大同區重慶北路二段１３５號九樓之３,3900,108.29,36.02,3.03,0.9,9,15,無,2,2,2,25.05816,121.513979,
11407,華廈,台北市大同區迪化街一段３５８號二樓之２,2871,66.54,47.07,8.87,14.7,2,10,有,0,2,2,25.062659,121.509188,
11407,華廈,台北市大同區延平北路四段１５號,2030,68.37,29.69,3.22,45.2,1,7,無,無隔間,0,0,25.069184,121.511061,其他增建；
11407,大樓,台北市大同區雙連街７９號八樓之１,5300,100.32,52.83,4.99,8.7,8,15,有,3,2,2,25.05977,121.518946,
11407,華廈,台北市大同區歸綏街５８號七樓,2438,91.05,41,4.54,7.6,7,10,有,2,1,1,25.05931,121.517803,車位位於地下1層夾層；其他增建；
11407,華廈,台北市大同區延平北路三段４６號二樓之４,692,30.17,22.94,2.55,42.9,2,7,無,2,2,1,25.064848,121.510981,親友、員工、共有人或其他特殊關係間之交易；
11407,大樓,台北市大同區重慶北路二段１３５號十五樓之１,1542,84.79,18.19,1.53,0.9,15,15,無,2,1,1,25.05816,121.513979,預售屋、或土地及建物分件登記案件；
11407,公寓,台北市大同區延平北路二段２４７巷３之７號二樓,1050,62.84,16.71,5.91,48.1,2,5,無,2,1,1,25.062384,121.512245,陽台外推；
11407,大樓,台北市大同區民族西路３３８號四樓之６,2450,73.62,33.28,3.26,3.6,4,15,有,2,2,1,25.0686,121.509439,
11407,公寓,台北市大同區承德路三段１９８巷７號,2250,76.74,29.32,8.71,45.7,1,5,無,3,2,2,25.070045,121.517807,其他增建；
11407,華廈,台北市大同區民權西路１４４巷１５號四樓,750,19.87,37.75,6.44,39.9,4,7,無,3,2,2,25.061758,121.515998,親友、員工、共有人或其他特殊關係間之交易；
11407,大樓,台北市大同區重慶北路二段１３５號六樓之２,2000,110.21,18.15,1.53,0.9,6,15,無,2,2,1,25.05816,121.513979,
11407,大樓,台北市大同區重慶北路二段１３５號七樓之２,2000,110.21,18.15,1.53,0.9,7,15,無,2,2,1,25.05816,121.513979,
11407,華廈,台北市大同區民族西路７６巷２５號八樓,4500,76.12,59.11,8.75,11.1,8,8,有,3,1,2,25.067823,121.517777,親友、員工、共有人或其他特殊關係間之交易；
11407,公寓,台北市大同區哈密街６８巷１６號三樓,1335,58.76,22.72,5.81,44.5,3,5,無,4,2,1,25.073289,121.518147,陽台外推；其他增建；
11407,華廈,台北市大同區涼州街５０號六樓,2688,66.46,40.45,4.72,41.7,6,9,無,3,2,2,25.060618,121.51173,陽台外推；其他增建；
11407,大樓,台北市大同區重慶北路三段１７８號十三樓,4300,77.7,55.34,6.25,11.6,13,13,有,3,2,2,25.06905,121.5134,
11407,華廈,台北市大同區延平北路三段１０２號五樓之１,1318,70.37,18.73,3.65,45.2,5,7,無,2,1,1,25.066423,121.510885,陽台外推；
11407,華廈,台北市大同區安西街９５號五樓,2488,85.22,32.36,4.64,8.4,5,7,有,2,2,1,25.062685,121.509852,其他增建；
11407,公寓,台北市大同區環河北路二段４３號四樓,1100,36.36,30.25,8.71,46.3,4,5,無,2,2,1,25.064636,121.508899,親友、員工、共有人或其他特殊關係間之交易；
11407,公寓,台北市大同區承德路二段１３９巷１７號,3656,44.34,82.46,11.13,41.5,1,5,無,2,1,2,25.057811,121.518836,親友、員工、共有人或其他特殊關係間之交易；
11407,公寓,台北市大同區雙連街５號四樓,1875,65.88,28.46,6.29,0,4,5,無,3,2,1,25.057961,121.51926,其他增建；
11407,公寓,台北市大同區蘭州街４２之１號五樓,825,45.47,18.14,4.43,40.6,5,5,無,4,2,1,25.062561,121.514469,親友、員工、共有人或其他特殊關係間之交易；
11407,公寓,台北市大同區蘭州街６巷６號三樓,1470,59.91,24.54,7.24,46.1,3,5,無,3,2,1,25.062097,121.514027,
11407,公寓,台北市大同區大龍街１１８號四樓之２,618,55.8,11.07,3.08,50.7,4,5,無,2,1,1,25.066978,121.515974,後陽台增建其他增建；
11407,華廈,台北市大同區歸綏街２０９號八樓之９,771,76.54,10.07,1.23,30.5,8,10,無,1,1,1,25.058262,121.512421,其他增建為：凸窗其他增建；
11407,大樓,台北市大同區民權西路１５３號十二樓之７,1488,124.47,11.95,1.03,2,12,15,無,1,1,1,25.063252,121.516547,含傢俱設備費；
11406,公寓,台北市大同區環河北路一段４１３巷３號,250,49.82,5.02,1.53,47.3,1,5,無,無隔間,0,0,25.062147,121.508756,親友、員工、共有人或其他特殊關係間之交易；
11406,大樓,台北市大同區延平北路二段１９７號十樓之１０,1141,65.69,17.37,1.55,46.9,10,11,無,1,1,1,25.05932,121.511523,
11406,公寓,台北市大同區環河北路二段６９巷１號二樓,1260,65.01,19.38,5.87,44.5,2,5,無,2,1,1,25.065353,121.509041,陽台外推；其他增建；
11406,公寓,台北市大同區承德路三段１５９巷１５號五樓,1900,61.05,31.12,8.65,45.7,5,5,無,3,2,2,25.068101,121.519205,陽台外推；
11406,公寓,台北市大同區環河北路二段５１號,2160,81.33,26.56,9,53,1,4,無,0,2,1,25.064917,121.508906,其他增建；
11406,公寓,台北市大同區承德路三段８５巷１３號三樓,2000,59.5,33.61,9.98,51.2,3,4,無,3,2,2,25.0661,121.519125,其他增建；
11406,大樓,台北市大同區敦煌路８０巷１號十二樓之１,2750,74.18,37.07,8.24,18.6,12,12,有,2,2,1,25.074596,121.517315,
11406,大樓,台北市大同區雙連街３號四樓,2988,101.12,29.55,3.38,1.3,4,11,有,2,2,1,25.057889,121.519195,
11406,公寓,台北市大同區環河北路一段４１３巷３號,250,49.82,5.02,1.53,47.3,1,5,無,無隔間,0,0,25.062147,121.508756,親友、員工、共有人或其他特殊關係間之交易；
11406,大樓,台北市大同區民權西路１５３號七樓,3365,117.81,36.72,2.32,2,7,15,有,2,1,1,25.063252,121.516547,
11406,公寓,台北市大同區歸綏街８８號五樓,1480,54.13,27.34,7.02,36.1,5,5,無,5,5,6,25.0587,121.516356,陽台外推；頂樓加蓋；其他增建；
11406,公寓,台北市大同區歸綏街８８之１號五樓,1070,40.68,26.3,7.02,36.1,5,5,無,4,4,3,25.058657,121.516369,陽台外推；頂樓加蓋；其他增建；
11406,華廈,台北市大同區民族西路２２５巷７弄２號地下,228,21.62,10.55,1.87,37.3,地下層,7,無,無隔間,0,0,25.069393,121.512401,目前做車位使用親友、員工、共有人或其他特殊關係間之交易；
11406,公寓,台北市大同區伊寧街５５之１號三樓,2200,63.51,34.64,9.21,39.8,3,5,無,3,2,2,25.064786,121.511608,陽台外推；其他增建；
11406,公寓,台北市大同區哈密街７０巷１弄７號,850,42.36,20.07,13.31,0,1,2,無,3,2,1,25.072986,121.517592,親友、員工、共有人或其他特殊關係間之交易；
11406,華廈,台北市大同區錦西街６５巷３０號二樓,2350,64.52,36.42,9.34,23,2,5,有,2,1,1,25.060339,121.515186,包含公共設施保留地用地；
11406,公寓,台北市大同區重慶北路三段２２３巷１弄５之５號,1500,50.37,29.78,9.98,56,2,4,無,3,2,1,25.070938,121.514614,陽台外推；
11406,公寓,台北市大同區大龍街１５９巷６號三樓,1257,58.85,21.36,7.41,56.5,3,4,無,3,2,1,25.068011,121.516328,
11406,公寓,台北市大同區迪化街二段１７２巷１５號二樓,1180,58.84,20.06,6.05,53.2,2,4,無,0,1,1,25.067222,121.509859,陽台外推；其他增建；
11406,公寓,台北市大同區迪化街二段１７２巷１５號,1400,69.81,20.06,6.05,53.2,1,4,無,0,1,1,25.067222,121.509859,其他增建；
11406,公寓,台北市大同區哈密街５９巷３８弄７號,1130,65.19,17.33,5.37,52.9,4,4,無,3,0,3,25.075037,121.515387,陽台外推；頂樓加蓋；
11406,華廈,台北市大同區安西街９５號四樓,1800,55.63,32.36,4.64,8.4,4,7,有,2,2,1,25.062685,121.509852,車位編號:2號親友、員工、共有人或其他特殊關係間之交易；
11406,公寓,台北市大同區昌吉街１１０巷１８號三樓,1626,52.62,30.9,9.91,56.7,3,4,無,有隔間,0,0,25.065309,121.514614,
11406,華廈,台北市大同區歸綏街５８號八樓之２,2076,94.57,29.15,4.05,7.6,8,10,有,3,1,1,25.05931,121.517803,塔式車位位於地下第二層。夾層；其他增建；
11406,大樓,台北市大同區承德路二段１４５號四樓之１,1450,108.03,13.42,1.48,1.3,4,15,無,1,1,1,25.057819,121.518477,
11406,大樓,台北市大同區民權西路１４４巷６號十五樓之４,3300,64.99,66.54,7.29,39.2,15,15,有,2,2,2,25.06239,121.515875,頂樓加蓋；其他增建；
11406,大樓,台北市大同區延平北路二段１９７號五樓,578,65.91,8.77,0.9,46.9,5,11,無,無隔間,0,0,25.05932,121.511523,
11406,大樓,台北市大同區大龍街９１巷１０號四樓之８,2488,94.6,26.3,3.74,3.9,4,13,無,2,2,2,25.067227,121.516918,
11406,華廈,台北市大同區延平北路四段９９號三樓之１,1205,73.08,16.49,3.19,11.3,3,7,無,0,2,1,25.071109,121.511027,陽台外推；其他增建；
11406,華廈,台北市大同區歸綏街２０９號六樓之５,1320,65.66,20.1,2.68,30.5,6,10,無,2,1,1,25.058262,121.512421,陽台外推；
11406,大樓,台北市大同區萬全街１號十五樓之３,6750,118.36,57.03,4.81,10.4,15,15,無,3,2,2,25.058644,121.519642,其他增建；
11406,大樓,台北市大同區雙連街３號六樓之１,1618,103.02,15.71,2,1.3,6,11,無,1,1,1,25.057889,121.519195,
11406,華廈,台北市大同區承德路三段１５９巷２２號四樓,3280,71,52.7,11.08,28,4,8,有,4,2,2,25.068006,121.519352,陽台外推；
11406,公寓,台北市大同區承德路三段１５９巷８號三樓,1500,73.46,20.42,8.87,0,3,3,無,3,2,2,25.068,121.518962,陽台外推；頂樓加蓋；其他增建；
11406,大樓,台北市大同區涼州街２號十二樓之６,2880,103.96,36.59,3.3,15,12,15,有,2,2,1,25.060861,121.513793,
11406,公寓,台北市大同區重慶北路三段１３３號四樓,1900,60.99,31.15,6.96,0,4,5,無,0,1,1,25.06791,121.513938,其他增建；
11406,公寓,台北市大同區延平北路三段１０４巷８號,1280,76.32,16.77,9.98,0,1,2,無,2,2,1,25.066551,121.5103,增建項目：壹樓空地、防火巷其他增建；
11406,大樓,台北市大同區民權西路１５３號八樓之２,1500,116.7,12.85,1.11,2,8,15,無,1,1,1,25.063252,121.516547,
11406,公寓,台北市大同區環河北路一段４１３巷３號,250,49.82,5.02,1.53,47.3,1,5,無,無隔間,0,0,25.062147,121.508756,親友、員工、共有人或其他特殊關係間之交易；
11406,公寓,台北市大同區環河北路一段４１３巷３號,250,49.82,5.02,1.61,47.3,1,5,無,無隔間,0,0,25.062147,121.508756,親友、員工、共有人或其他特殊關係間之交易；
11406,公寓,台北市大同區甘州街５２巷６號四樓,1100,57.49,19.13,6.28,52,4,4,無,3,0,3,25.060025,121.512386,
11406,大樓,台北市大同區民權西路１１８巷２號九樓之３,1433,128.94,11.11,1.38,19.7,9,11,無,0,1,1,25.062084,121.51679,夾層；其他增建；
11406,大樓,台北市大同區延平北路二段２０２號十一樓之３,3380,57.19,59.11,5.04,31.1,11,18,有,無隔間,0,0,25.05907,121.511284,
11405,公寓,台北市大同區雙連街５號,2387.5,167.75,14.23,3.15,0,1,5,無,無隔間,0,0,25.057961,121.51926,親友、員工、共有人或其他特殊關係間之交易；
11405,公寓,台北市大同區庫倫街１３巷１弄２１號,1300,74.92,17.35,6.05,55.3,1,4,無,2,1,1,25.072411,121.517941,
11405,公寓,台北市大同區延平北路四段１５３巷７號二樓,1037,64.58,16.06,10.59,0,2,2,無,2,1,1,25.072758,121.511492,夾層；其他增建；
11405,公寓,台北市大同區承德路三段２４巷３８弄７號三樓,1470,66.6,22.07,8.27,58,3,3,無,2,0,2,25.06391,121.516309,頂樓加蓋；
11405,華廈,台北市大同區保安街７２巷３號三樓之７,1100,96.48,11.4,2.26,17.8,3,7,無,1,1,1,25.058747,121.512239,陽台外推；夾層；其他增建；
11405,公寓,台北市大同區迪化街二段７３號二樓,1570,64.11,24.49,7.68,45.2,2,5,無,3,2,2,25.065313,121.509507,陽台外推；其他增建；含租約；
11405,大樓,台北市大同區歸綏街１３８號五樓之１,1465,82.73,17.71,1.69,29,5,13,無,2,1,1,25.05787,121.514265,陽台外推；其他增建；
11405,大樓,台北市大同區民權西路３００之５號,1515,63,24.05,1.95,9,1,13,有,無隔間,0,0,25.062857,121.510343,
11405,華廈,台北市大同區民樂街１７７號四樓之１,1000,64.67,15.46,3.45,29.6,4,6,無,1,1,1,25.059446,121.510588,陽台外推；
11405,公寓,台北市大同區民權西路２９２巷２２號,823,70.98,11.59,2.62,45.3,1,5,無,1,1,1,25.062334,121.510378,
11405,公寓,台北市大同區迪化街二段２４４之１號,1390,64,21.72,12.55,59.9,2,2,無,0,2,2,25.06933,121.511138,
11405,公寓,台北市大同區承德路三段２４巷２４號四樓,1850,58.74,31.5,9.68,47.3,4,5,無,3,2,2,25.064164,121.516947,陽台外推；其他增建；
11405,公寓,台北市大同區重慶北路三段２５巷１１弄９號三樓,400,34.17,11.71,3.52,49.1,3,4,無,2,2,1,25.064913,121.514854,陽台外推；其他增建；畸零地或有合併使用效益；
11405,華廈,台北市大同區承德路三段２０８巷３３號二樓,1800,72.07,24.98,4.63,42.8,2,7,無,2,2,1,25.070588,121.517097,陽台外推；其他增建；
11405,公寓,台北市大同區延平北路四段５３號三樓,778,54.78,14.2,1.32,56.2,3,4,無,2,1,1,25.069952,121.511024,法空上方增建其他增建；
11405,大樓,台北市大同區承德路三段５８號三樓之２,3880,71.89,53.97,7.27,42.8,3,12,無,3,2,2,25.065206,121.518106,陽台外推；
11405,公寓,台北市大同區酒泉街１０３巷５之１號二樓,1300,51.14,25.42,8.47,50.5,2,4,無,2,2,1,25.072594,121.515154,親友、員工、共有人或其他特殊關係間之交易；
11405,公寓,台北市大同區哈密街６３巷８號二樓,1366,72.12,18.94,5.26,46.2,2,5,無,2,2,1,25.074017,121.515178,
11405,大樓,台北市大同區昌吉街２６號,1000,113.95,8.78,1.43,14.2,1,14,無,2,1,1,25.065792,121.517093,親友、員工、共有人或其他特殊關係間之交易；夾層；
11405,大樓,台北市大同區承德路三段２０８巷６號十一樓之２,845,105.21,8.03,1.25,18.8,11,11,無,0,1,1,25.070577,121.517405,其他增建；
11405,大樓,台北市大同區寧夏路１６５號十二樓之３,2800,67.92,41.23,4.61,14.3,12,14,無,3,2,2,25.061556,121.514243,親友、員工、共有人或其他特殊關係間之交易；
11405,華廈,台北市大同區歸綏街１６８號九樓之１,1035,70.14,14.76,1.85,32.3,9,10,無,1,1,1,25.058155,121.51265,其他增建；
11405,華廈,台北市大同區民族西路３２５號四樓之３,1500,54,27.78,4.58,43.9,4,7,無,3,2,1,25.068838,121.509477,
11405,華廈,台北市大同區環河北路二段２６９號四樓之９,250,40.99,6.1,2.69,50.2,4,4,無,1,1,1,25.070207,121.509666,親友、員工、共有人或其他特殊關係間之交易；
11405,華廈,台北市大同區迪化街二段８０號六樓之１,1640,67.47,24.31,4.92,35.2,6,7,無,2,1,1,25.065312,121.509494,
11405,大樓,台北市大同區承德路二段２０９號,3920,110.44,35.5,5.62,30.8,1,11,無,0,1,1,25.059923,121.518535,其他增建；
11405,大樓,台北市大同區民權西路１６０巷１８弄６號十樓之５,2200,76.85,35.79,3.69,4.3,10,18,有,2,1,1,25.062165,121.515483,親友、員工、共有人或其他特殊關係間之交易；
11405,公寓,台北市大同區承德路三段１１３巷１０號二樓,1606,61.41,26.15,9.38,53.3,2,4,無,3,2,2,25.066764,121.519109,
11405,公寓,台北市大同區迪化街二段３３６號四樓,1200,58.34,20.57,7.34,54.3,4,4,無,3,2,2,25.07236,121.512608,頂樓加蓋；
11405,大樓,台北市大同區重慶北路三段７６號八樓,4750,80.59,68.6,6.48,23,8,14,有,4,2,2,25.066167,121.513438,其他增建；
11405,華廈,台北市大同區重慶北路三段２３６巷５弄２號五樓之１,1565,76.1,20.56,3.99,6.4,5,6,無,2,1,1,25.071075,121.513263,
11405,大樓,台北市大同區重慶北路二段１５７號十一樓之２,1640,83.79,19.57,1.96,44.9,11,12,無,2,1,1,25.05854,121.513806,陽台外推；
11404,公寓,台北市大同區重慶北路三段２２３巷１９號,2015,89.32,22.56,7.94,56.9,1,4,無,無隔間,0,0,25.070585,121.514762,陽台外推；其他增建；
11404,公寓,台北市大同區重慶北路三段２０５巷１７號,1700,74.07,22.95,5.38,43.1,1,5,無,2,2,1,25.070119,121.514582,其他增建；
11404,公寓,台北市大同區延平北路三段１１０號二樓,1000,40.78,24.52,7.26,52.8,2,4,無,2,1,1,25.06681,121.510862,親友、員工、共有人或其他特殊關係間之交易；
11404,公寓,台北市大同區延平北路三段１１０之１號二樓,1000,40.78,24.52,7.18,52.8,2,4,無,1,1,1,25.066876,121.510858,親友、員工、共有人或其他特殊關係間之交易；未登記建物；
11404,公寓,台北市大同區伊寧街５５之３號三樓,270,41.67,6.48,1.74,39.8,3,5,無,2,1,1,25.064697,121.511583,親友、員工、共有人或其他特殊關係間之交易；
11404,大樓,台北市大同區民權西路１５３號五樓之７,1428,120,11.9,1.03,2,5,15,無,0,1,1,25.063252,121.516547,
11404,公寓,台北市大同區大龍街８７巷１號五樓之８,490,61.06,8.03,4.19,60.8,5,5,無,1,1,1,25.066636,121.516652,
11404,公寓,台北市大同區重慶北路三段２２３巷１９號二樓,1500,66.49,22.56,7.94,56.9,2,4,無,2,2,2,25.070585,121.514762,
11404,公寓,台北市大同區迪化街二段４２６號四樓之１,1200,26.53,45.23,13.38,48.4,4,5,無,3,2,2,25.074044,121.511773,親友、員工、共有人或其他特殊關係間之交易；
11404,大樓,台北市大同區民權西路１５３號十二樓之１０,1515,126.73,11.95,1.03,2,12,15,無,1,1,1,25.063252,121.516547,
11404,大樓,台北市大同區延平北路二段１６８號十樓之１,2760,90.97,31.61,2.91,2.3,10,12,有,2,2,1,25.058153,121.511406,
11404,公寓,台北市大同區迪化街二段３０９號二樓,750,30.42,24.65,0,29.2,2,4,無,2,2,1,25.073812,121.512453,建物坐落地號：文昌段一小段240地號；親友、員工、共有人或其他特殊關係間之交易；
11404,華廈,台北市大同區萬全街３０之２號六樓,1800,63.5,28.34,4.99,41.2,6,7,無,3,2,1,25.058622,121.52042,親友、員工、共有人或其他特殊關係間之交易；
11404,華廈,台北市大同區延平北路四段９７號七樓,3500,77.88,46.04,8.41,11.3,7,7,有,2,2,2,25.071109,121.511027,
11404,公寓,台北市大同區哈密街２０巷１８號三樓,668,20.15,33.15,9.6,50,3,4,無,5,1,3,25.073699,121.518653,親友、員工、共有人或其他特殊關係間之交易；其他增建；
11404,大樓,台北市大同區承德路三段５８號十樓之３,2600,62.27,41.75,5.76,42.8,10,12,無,0,2,1,25.065206,121.518106,現況為辦公室親友、員工、共有人或其他特殊關係間之交易；
11404,公寓,台北市大同區承德路三段１４３巷１號三樓,1500,67.7,22.16,9.78,0,3,3,無,2,2,1,25.067753,121.518841,頂樓加蓋；其他增建；
11404,公寓,台北市大同區重慶北路三段２２３巷２３弄１之３號,1350,49.04,27.53,10.06,56.2,4,4,無,3,2,1,25.070778,121.514824,親友、員工、共有人或其他特殊關係間之交易；陽台外推；頂樓加蓋；
11404,華廈,台北市大同區萬全街８３號三樓之１,1000,27.91,35.83,8.37,31.3,3,7,無,3,1,2,25.058273,121.517041,親友、員工、共有人或其他特殊關係間之交易；
11404,公寓,台北市大同區承德路三段１１３巷１０號四樓,1740,59.71,29.14,9.38,53.3,4,4,無,3,2,1,25.066764,121.519109,陽台外推；頂樓加蓋；
11404,大樓,台北市大同區雙連街３號八樓之１,1768,112.57,15.71,2,1.3,8,11,無,1,1,1,25.057889,121.519195,
11404,大樓,台北市大同區民權西路１３６號六樓之８,1340,77.25,17.35,1.6,36,6,18,無,2,1,1,25.063134,121.51686,其他增建；
11404,公寓,台北市大同區大龍街２３７號,2570,60.49,42.49,11.04,0,1,4,無,無隔間,0,0,25.070978,121.515965,親友、員工、共有人或其他特殊關係間之交易；其他增建；
11404,公寓,台北市大同區承德路三段２２５巷１０號,2958,92.05,32.13,7.85,42.5,1,5,無,0,1,2,25.070237,121.519465,其他增建；
11404,華廈,台北市大同區景化街２號二樓之２,1900,51.33,37.01,7.4,42.5,2,7,無,2,2,2,25.065032,121.511266,
11404,華廈,台北市大同區甘州街２２號四樓之３,750,51.07,14.69,1.89,47,4,8,無,1,1,1,25.058697,121.512798,陽台外推；
11404,華廈,台北市大同區大龍街３０６號三樓,300,52.98,5.66,1.67,30.3,3,6,無,3,2,2,25.071669,121.515777,親友、員工、共有人或其他特殊關係間之交易；
11404,華廈,台北市大同區延平北路三段４６號四樓之５,960,71.17,13.49,2.5,42.9,4,7,無,2,1,1,25.064848,121.510981,親友、員工、共有人或其他特殊關係間之交易；
11404,公寓,台北市大同區民族西路２７２號,2300,92.33,24.91,8.98,0,1,3,無,0,1,1,25.068539,121.511785,
11403,公寓,台北市大同區伊寧街７號四樓,2000,37.12,53.88,16.09,41.9,4,5,無,4,2,2,25.064737,121.513119,親友、員工、共有人或其他特殊關係間之交易；
11403,大樓,台北市大同區重慶北路三段６７號十五樓之１,3450,78.41,44,4.01,16.4,15,15,有,4,2,3,25.066252,121.513903,
11403,大樓,台北市大同區重慶北路三段１７８號四樓,3900,70.47,55.34,6.25,11.6,4,13,有,3,2,2,25.06905,121.5134,
11403,公寓,台北市大同區重慶北路三段２９５巷３４號三樓,1372,60.09,22.83,8.09,57.3,3,4,無,2,2,1,25.073607,121.515084,
11403,大樓,台北市大同區民權西路１５３號十四樓之２,1585,123.32,12.85,1.11,2,14,15,無,1,1,1,25.063252,121.516547,
11403,華廈,台北市大同區大龍街３０６號三樓,200,35.32,5.66,1.67,30.3,3,6,無,3,2,2,25.071669,121.515777,二親等主張買賣，實際交付價款。親友、員工、共有人或其他特殊關係間之交易；
11403,大樓,台北市大同區重慶北路二段１７５之１號四樓之１,2590,87.89,29.47,2.92,6.8,4,15,無,1,1,1,25.059472,121.513785,其他增建；
11403,大樓,台北市大同區大龍街９１巷１２號六樓之９,1460,86.03,16.97,2.4,3.9,6,13,無,2,1,1,25.067224,121.517024,
11403,公寓,台北市大同區延平北路二段２５０巷４號四樓,2250,55.48,40.55,8.08,39.1,4,5,無,4,2,2,25.06014,121.51092,陽台外推；其他增建；
11403,公寓,台北市大同區承德路三段１７６巷７號三樓,700,26.84,26.08,7.65,40.6,3,5,無,3,2,2,25.069233,121.517871,親友、員工、共有人或其他特殊關係間之交易；
11403,公寓,台北市大同區承德路三段１２９巷５號三樓,915,40.51,22.58,2.34,56.7,3,4,無,3,2,1,25.067359,121.518919,
11403,大樓,台北市大同區民權西路１４４巷６號五樓之３,1500,22.92,65.45,6.49,39.2,5,15,有,4,2,2,25.06239,121.515875,親友、員工、共有人或其他特殊關係間之交易；
11403,公寓,台北市大同區安西街１７０號五樓,1550,56.25,27.56,6.47,39.9,5,5,無,3,2,2,25.062857,121.509783,陽台外推；頂樓加蓋；
11403,大樓,台北市大同區民權西路２３７之１號六樓之６,3850,104,40.85,3.3,6.8,6,19,有,3,2,2,25.06369,121.512078,
11403,大樓,台北市大同區重慶北路二段２０７號十二樓,2950,65.94,44.74,5.46,32.2,12,12,有,1,1,0,25.060686,121.5137,
11403,大樓,台北市大同區民權西路１５３號八樓之２,1268,98.65,12.85,1.11,2,8,15,無,無隔間,0,0,25.063252,121.516547,
11403,公寓,台北市大同區延平北路四段１５３巷２４號三樓,1350,55.46,24.34,7.79,54.6,3,4,無,2,2,1,25.072572,121.511904,其他增建；
11403,大樓,台北市大同區民權西路１２２號十四樓之７,1430,83.46,17.14,1.31,17.8,14,14,有,1,1,1,25.063134,121.51686,
11403,大樓,台北市大同區哈密街５９巷３８弄５０號十三樓之２,1778,42.54,41.8,0,6.3,13,13,無,3,2,2,25.074887,121.514307,土地為台北市所有；本案僅交易建物。；建物坐落地號：大龍段二小段274地號；
11403,公寓,台北市大同區承德路三段１９６號四樓,930,43.73,21.27,6.81,52.4,4,4,無,2,1,1,25.069856,121.518207,親友、員工、共有人或其他特殊關係間之交易；
11403,公寓,台北市大同區伊寧街７５巷１５號二樓,1250,35.1,35.62,1.62,41.5,2,5,無,3,2,2,25.064906,121.510726,其他增建；
11403,公寓,台北市大同區酒泉街２１９號,2070,93.05,22.25,13.16,0,1,2,無,2,1,1,25.072225,121.511395,其他增建；
11403,華廈,台北市大同區迪化街二段１９１巷１５號六樓,3600,68.53,52.53,9.72,41.2,6,7,無,4,2,2,25.069498,121.511786,陽台外推；
11403,公寓,台北市大同區哈密街５９巷３８弄３９號四樓,400,52.47,7.62,2.84,53.2,4,4,無,2,2,1,25.075039,121.514782,親友、員工、共有人或其他特殊關係間之交易；
11403,公寓,台北市大同區重慶北路三段２５巷１１弄１１號,170,50.13,3.39,1.06,49.1,1,4,無,3,1,1,25.064962,121.514876,親友、員工、共有人或其他特殊關係間之交易；
11403,公寓,台北市大同區承德路三段１８８號,4180,89.13,46.9,18.3,56.2,1,4,無,3,2,2,25.069683,121.518219,未登記建物；
